id_festival,nom_festival,envergure_territoriale_festival,code_insee_commune_festival,adresse_postale_festival,complement_adresse_festival,site_internet_festival,adresse_mail_festival,decennie_creation_festival,annee_creation_festival,discipline_dominante_festival,sous-categorie_spectacle_vivant,sous-categorie_musique,sous-categorie_cinema_et_audiovisuel,sous-categorie_arts_visuels_et_numeriques,sous-categorie_livre_et_litterature,periode_principale_deroulement_festival,geocodage_xy_festival,geocodage_latitude_festival,geocodage_longitude_festival,,,,,,,,,,,,,,,,
5,Le Grand HUIT,,44109,9 Rue Sanlecque,,https://honolulu.oro.fr,administration@oro.fr,2010 et après,2016,Spectacle vivant,Danse,,,,,Après-saison (6 septembre - 31 décembre),"47.2316356767, -1.54831008605",47.2316356767,-1.54831008605,,,,,,,,,,,,,,,,
6,La Clé des Portes,Régionale,41253,18 rue du Château,,https://www.lacledesportes-festival.com,contact@lacledesportes-festival.com,De 2000 à 2009,2013,Musique,,"Musique classique, jazz, gospel et compositeurs contemporains également proposés au public",,,,Saison (21 juin - 5 septembre),"47.7683772018, 1.4383898244",47.7683772018,1.4383898244,,,,,,,,,,,,,,,,
7,FestiLoir,Intercommunale,72364,1 Rue Anatole Carré,,,paola.perseille@pays-valleeduloir.fr,De 2000 à 2009,2003,Spectacle vivant,"Cirque, Arts de la rue",,,,,Saison (21 juin - 5 septembre),"47.6723014522, 0.315373744758",47.6723014522,0.315373744758,,,,,,,,,,,,,,,,
8,Malices au Pays,Intercommunale,72364,1 Rue Anatole Carré,,,paola.perseille@pays-valleeduloir.fr,2010 et après,2015,Spectacle vivant,Théâtre,,,,,Avant-saison (1er janvier - 20 juin),"47.6723014522, 0.315373744758",47.6723014522,0.315373744758,,,,,,,,,,,,,,,,
9,Festival de rockabilly de Tarbes,Intercommunale,65440,23 Rue Paul Cézanne,Smac La Gespe,http://leguidedesfestivals.com/2018-rockabilly-tarbes-34895.html,contact@lagespe.com,2010 et après,2016,Musique,,rock pop,,,,Saison (21 juin - 5 septembre),"43.2347859635, 0.0660093937851",43.2347859635,0.0660093937851,,,,,,,,,,,,,,,,
10,Festival international d'Orgue de Caen,Communale,14118,1 rue du Carel,,https://conservatoire-orchestre.caen.fr/programmation?type_prog=1529,billetterie-orchestre@caenlamer.fr,De 2000 à 2009,2004,Musique,,Orgue,,,,Avant-saison (1er janvier - 20 juin),"49.1847936737, -0.369801713036",49.1847936737,-0.369801713036,,,,,,,,,,,,,,,,
11,Festival international de musique de chambre,Internationale,13103,Montée du puech,Château de l'emperi,https://festival-salon.fr,theatre@festival-salon.fr,De 1990 à 1999,1993,Musique,,Musique savante,,,,Saison (21 juin - 5 septembre),"43.6462885238, 5.06814649576",43.6462885238,5.06814649576,,,,,,,,,,,,,,,,
12,Le manteau de Brômes,Communale,4189,,Salle polyvalente,,,2010 et après,2010,Spectacle vivant,,,,,,Avant-saison (1er janvier - 20 juin),"43.7774768739, 5.96250175121",43.7774768739,5.96250175121,,,,,,,,,,,,,,,,
13,Journées BD,Communale,84074,,Association mérindol culture - maison des associations gilbert plat,,francoise.escallier@wanadoo.fr,2010 et après,2015,"Livre, littérature",,,,,,Après-saison (6 septembre - 31 décembre),"43.7619243813, 5.20153482914",43.7619243813,5.20153482914,,,,,,,,,,,,,,,,
14,Instants de Grasse,Communale,6069,,Jardins de la villa de fragonard,https://www.facebook.com/instantsdegrasse/,instantsdegrasse@gmail.com,2010 et après,2016,Musique,,Musique classique,,,,Saison (21 juin - 5 septembre),"43.655639428, 6.93190508233",43.655639428,6.93190508233,,,,,,,,,,,,,,,,
15,Un Doua de jazz,Communale,69266,20 Avenue A. Einstein,Maison des étudiants,,contact@undouadejazz.com,De 1990 à 1999,26ème,Musique,,"jazz, blues et musiques improvisées",,,,Après-saison (6 septembre - 31 décembre),"45.7707704179, 4.88845817426",45.7707704179,4.88845817426,,,,,,,,,,,,,,,,
16,La fête à Voltaire,Communale,1160,Mairie Avenue voltaire,Commune de Ferney-Voltaire,,,De 2000 à 2009,18ème,Spectacle vivant,,,,,,Saison (21 juin - 5 septembre),"46.2519789243, 6.10826403805",46.2519789243,6.10826403805,,,,,,,,,,,,,,,,
17,Salon du livre jeunesse Douai,Communale,59178,Rue Fortier,"Salles d'Anchin, Rue Fortier",,brouillonsculture@wanadoo.fr,De 1990 à 1999,1995,"Livre, littérature",,,,,"Jeunesse, lecture",Avant-saison (1er janvier - 20 juin),"50.3823195335, 3.09145683114",50.3823195335,3.09145683114,,,,,,,,,,,,,,,,
18,Apéros jazz du provencal,Communale,83069,,Hôtel restaurant le provençal,,victor.jazzaporquerolles@gmail.com,2010 et après,2010,Musique,,Jazz,,,,Saison (21 juin - 5 septembre),"43.1018713534, 6.18898508469",43.1018713534,6.18898508469,,,,,,,,,,,,,,,,
19,Fête du livre jeunesse de Montbrison,Communale,42147,13 Place Pasteur,"Association ""Centre Social"" de Montbrison",,,de 1980 à 1989,1984,"Livre, littérature",,,,,Fiction,Avant-saison (1er janvier - 20 juin),"45.6008365515, 4.0713982073",45.6008365515,4.0713982073,,,,,,,,,,,,,,,,
20,XX sur 20,Communale,75056,,,https://www.facebook.com/xxs20/,,,,Spectacle vivant,Danse,,,,,Avant-saison (1er janvier - 20 juin),"48.8567, 2.3508",48.8567,2.3508,,,,,,,,,,,,,,,,
21,Festival Saisons d’elles,Communale,31555,197 route de saint simon,Café culturel Sous un chapiteau sur la Place des Pradettes,https://www.follessaisons.com/festival-saisons-d-elles/,saisonsdelles@gmail.com,2010 et après,2018,Musique,,"musique, féministe et citoyen",,,,Après-saison (6 septembre - 31 décembre),"43.5963814303, 1.43167293364",43.5963814303,1.43167293364,,,,,,,,,,,,,,,,
22,Salon du livre de Wimereux,Communale,62893,Rue Sainte-Adrienne,"Salons des jardins de la baie Saint-Jean, rue Sainte-Adrienne",https://www.ville-wimereux.fr,culture@mairie-wimereux.fr,De 1980 à 1989,1989,"Livre, littérature",,,,,Généraliste,Après-saison (6 septembre - 31 décembre),"50.7792497892, 1.6134323131",50.7792497892,1.6134323131,,,,,,,,,,,,,,,,
23,Salon de la poésie et des arts,Communale,60229,230 Rue des Lombards,"Château du Fayel, 230 rue des Lombards",http://graines-de-mots.over-blog.com,graines.de.mots.60@gmail.com,2010 et après,2018,"Livre, littérature",,,,,Poésie,Avant-saison (1er janvier - 20 juin),"49.3722915111, 2.6969172661",49.3722915111,2.6969172661,,,,,,,,,,,,,,,,
24,Caravan'Square,Communale,59426,1 Place du Général De Gaulle,Hôtel de Ville,,fmagnier@neuville-en-ferrain.fr,2010 et après,2021,Musique,,"Chanson ou variété française, Hip-hop, rap, slam, Musique contemporaine, Musiques du monde, Musiques électroniques, techno, Pop, rock, Le Caravan'Square se veut éclectique",,,,Saison (21 juin - 5 septembre),"50.7533162393, 3.15977251104",50.7533162393,3.15977251104,,,,,,,,,,,,,,,,
25,Midi Toulon festival,Communale,83137,106 bis Rue Paul marchelli,,https://www.midi-festival.com,info@midi-festival.com,De 2000 à 2009,,Musique,,"Pop, rock, rap, electro",,,,Après-saison (6 septembre - 31 décembre),"43.1361589728, 5.93239634249",43.1361589728,5.93239634249,,,,,,,,,,,,,,,,
26,Les vinestivales,Communale,83150,66 Avenue De la libération,,http://lesvinestivales.fr/,vintagemusicclub@gmail.com,2010 et après,2010,Musique,,Rock,,,,Saison (21 juin - 5 septembre),"43.7224277972, 5.80747605851",43.7224277972,5.80747605851,,,,,,,,,,,,,,,,
27,Festival de poésie de Beuvry,Communale,62126,37 Rue François Galvaire,"Domaine de Bellenville, 37 rue François Galvaire",https://www.maisondelapoesiehdf.fr,mapoesie.npdc@wanadoo.fr,2010 et après,2019,"Livre, littérature",,,,,Poésie,Après-saison (6 septembre - 31 décembre),"50.5328399462, 2.69176985674",50.5328399462,2.69176985674,,,,,,,,,,,,,,,,
28,Salon du livre et de la BD de Creil,Communale,60175,Allée Nelson,"Espace culturel La Faïencerie, allée Nelson",https://www.lavilleauxlivres.com,lavilleauxlivres@orange.fr,De 1980 à 1989,1986,"Livre, littérature",,,,,Généraliste,Après-saison (6 septembre - 31 décembre),"49.2533487138, 2.48472669359",49.2533487138,2.48472669359,,,,,,,,,,,,,,,,
29,La BD sur un plateau,Communale,43051,21 Route Du collège,Association Art et Sens La culture sur un plateau,,,2010 et après,3ème,"Livre, littérature",,,,,Bande dessinée,Après-saison (6 septembre - 31 décembre),"45.0524632592, 4.31966525163",45.0524632592,4.31966525163,,,,,,,,,,,,,,,,
30,Interférences,Communale,69123,11 Rue de l'Annonciade,Scènes publiques,,prog.interferences@gmail.com,2010 et après,2015,"Cinéma, audiovisuel",,,Documentaires,,,Après-saison (6 septembre - 31 décembre),"45.759723, 4.842223",45.759723,4.842223,,,,,,,,,,,,,,,,
31,La Rue des enfants,Communale,46201,1 Place des Consuls,,http://laruedesenfants.org,info@laruedesenfants.org,De 2000 à 2009,2009,Spectacle vivant,,,,,,Avant-saison (1er janvier - 20 juin),"44.335497631, 1.21192283879",44.335497631,1.21192283879,,,,,,,,,,,,,,,,
32,Salon du livre et de l'illustration,Communale,60382,70 Rue Aimé Dennel,"Médiathèque Jean Moulin, 70 rue Aimé Dennel",http://www.mediatheque-margnylescompiegne.fr/,contact-mjm@mairie-margnylescompiegne.fr,De 2000 à 2009,2001,"Livre, littérature",,,,,"Jeunesse, littérature et écriture contemporaine, sciences humaines, sociale, lettres, sciences fondamentales",Après-saison (6 septembre - 31 décembre),"49.4329968709, 2.8054861143",49.4329968709,2.8054861143,,,,,,,,,,,,,,,,
33,Le Samoëns American festival,Communale,74258,1 Place du Gros Tilleul,,,adrien@samoens.com,De 2000 à 2009,,Spectacle vivant,Danse,,,,,Saison (21 juin - 5 septembre),"46.0878467821, 6.74329361493",46.0878467821,6.74329361493,,,,,,,,,,,,,,,,
34,Bulles en Nord,Communale,59367,Avenue Paul Bert,Avenue Paul Bert,https://fr-fr.facebook.com/pages/category/Interest/Festival-Bulles-en-Nord-Lys-lez-Lannoy-1515137362077712/,p.delgrange@laposte.net,De 1980 à 1989,1987,"Livre, littérature",,,,,"Bande dessinée, comics, manga",Après-saison (6 septembre - 31 décembre),"50.6721775091, 3.2172382556",50.6721775091,3.2172382556,,,,,,,,,,,,,,,,
35,Roubaix Comics,Communale,59512,9 Rue de l'Hospice,Salle Watremez,https://lillecomicsfestival.com,contact@lillecomicsfestival.com,2010 et après,2019,"Livre, littérature",,,,,"Bande dessinée, comics, manga",Avant-saison (1er janvier - 20 juin),"50.6879774811, 3.18258434623",50.6879774811,3.18258434623,,,,,,,,,,,,,,,,
36,Cinémas du Sud,Communale,69123,3 Rue des Pierres plantées,Institut Lumière,https://www.regardsud.com,regard.sud@orange.fr,De 1990 à 1999,1999,"Cinéma, audiovisuel",,,Fiction long métrage,,,Avant-saison (1er janvier - 20 juin),"46.1927452094, 4.45130908694",46.1927452094,4.45130908694,,,,,,,,,,,,,,,,
37,Festival Europa Revel,Communale,31451,20 Rue Jean Moulin,Mairie De Revel,https://www.facebook.com/festivaleuropa/,,2010 et après,,Musique,,"Musiques électroniques, techno",,,,Saison (21 juin - 5 septembre),"43.4656037799, 1.99689394052",43.4656037799,1.99689394052,,,,,,,,,,,,,,,,
38,Ecrivains en Grésivaudan,Communale,38214,5 Lotissement Chantemont,Association Ecrivains en Grésivaudan,,,De 2000 à 2009,19ème,"Livre, littérature",,,,,Fiction,Après-saison (6 septembre - 31 décembre),"45.3040708213, 5.91320283012",45.3040708213,5.91320283012,,,,,,,,,,,,,,,,
39,Hop Pop Hop,Communale,45234,1 rue Robert de Courtenay,CAMPO SANTO JARDIN DE L'EVÊCHÉ,https://www.hoppophop.fr/,contact@hoppophop.fr / contact@lastrolabe.org,2010 et après,2016,Musique,,"Hip-hop, rap, slam, Métal, hard rock, Musiques du monde, Musiques électroniques, techno, Pop, rock",,,,Après-saison (6 septembre - 31 décembre),"47.8828634214, 1.91610357477",47.8828634214,1.91610357477,,,,,,,,,,,,,,,,
40,Festival de la chanson à texte de Montcuq-en-Quercy-Blanc,Communale,46201,1 Place Place des  Consuls,,http://www.festichanson-montcuq.com/,festichanson@gmail.com,De 2000 à 2009,2005,Musique,,,,,,Saison (21 juin - 5 septembre),"44.335497631, 1.21192283879",44.335497631,1.21192283879,,,,,,,,,,,,,,,,
41,Africa fête,Communale,13055,41 Rue Jobin,Friche la belle de mai,https://www.africafete.com,colaproduction2002@gmail.com,De 2000 à 2009,2005,Musique,,Musiques du monde,,,,Saison (21 juin - 5 septembre),"43.296346, 5.369889",43.296346,5.369889,,,,,,,,,,,,,,,,
42,Villeneuve live musique,Communale,6161,,Village,https://www.villeneuveloubet.fr,service-spectacles@mairie-villeneuve-loubet.fr,2010 et après,,Musique,,Autre,,,,Saison (21 juin - 5 septembre),"43.6492560734, 7.10728434873",43.6492560734,7.10728434873,,,,,,,,,,,,,,,,
43,Calan d'art,Communale,13055,,,,calandart13810@gmail.com,De 2000 à 2009,2008,Musique,,"Jazz, impros, chansons",,,,Avant-saison (1er janvier - 20 juin),"43.296346, 5.369889",43.296346,5.369889,,,,,,,,,,,,,,,,
44,T'en veux en corps?,Communale,1053,4 Allée Des Brotteaux,Mcc 4 allée des Brotteaux,http://groupenuits.com/index.php/festival/,production@collectif-stp.fr,De 2000 à 2009,,Spectacle vivant,Danse,,,,,Après-saison (6 septembre - 31 décembre),"46.2051520382, 5.24602125501",46.2051520382,5.24602125501,,,,,,,,,,,,,,,,
45,Tôt Ou T'arts,Communale,1173,228 Avenue Des Alpes,Centre Socioculturel Les Libellules,https://www.festivaltotoutarts.com/,festival.totoutarts@cscleslibellules.fr,De 2000 à 2009,18ème,Spectacle vivant,Arts de la rue,,,,,Avant-saison (1er janvier - 20 juin),"46.3471891747, 6.04650555568",46.3471891747,6.04650555568,,,,,,,,,,,,,,,,
46,9ph,Communale,69123,9 Rue de l'Alma,,https://www.festival9ph.com,festival9ph@gmail.com,De 2000 à 2009,2002,"Arts visuels, arts numériques",,,,Autres (photographie),,Après-saison (6 septembre - 31 décembre),"46.1084857601, 4.56101357322",46.1084857601,4.56101357322,,,,,,,,,,,,,,,,
47,Pupitres en liberté,Communale,39198,1 Place de l'Europe,,https://www.sortiradole.fr/?id=143&uid=8155,d.gueniat@dole.org,2010 et après,2014,Musique,,Musique classique,,,,Avant-saison (1er janvier - 20 juin),"47.0755452538, 5.50062446099",47.0755452538,5.50062446099,,,,,,,,,,,,,,,,
48,Salon je lis jeun'esse,Communale,62318,Boulevard Bigot Descelers,Boulevard Bigot Descelers,https://etaples-sur-mer.fr/,communication@etaples-sur-mer.net,2010 et après,2011,"Livre, littérature",,,,,Généraliste,Après-saison (6 septembre - 31 décembre),"50.5235816785, 1.65199985504",50.5235816785,1.65199985504,,,,,,,,,,,,,,,,
49,Hallucinations collectives,Communale,69123,2 Rue d'Isly,ZONEBIS,,,2010 et après,12ème,"Cinéma, audiovisuel",,,Courts et longs métrages de fiction,,,Avant-saison (1er janvier - 20 juin),"46.0937833535, 4.64506094432",46.0937833535,4.64506094432,,,,,,,,,,,,,,,,
50,Tête de mule,Communale,42218,8 Rue de la Valse,SCIC SA Les 3C - Centre culturel cinématographique Les 3C - Cinéma LEFRANCE,,,De 2000 à 2009,19ème,"Cinéma, audiovisuel",,,"Jeune public (CM, animation, fiction)",,,Avant-saison (1er janvier - 20 juin),"45.4301235512, 4.37913997076",45.4301235512,4.37913997076,,,,,,,,,,,,,,,,
51,Festival d'orgue de Saint-Maximin - Orgue en été,Communale,83116,,Basilique saint-marie-madeleine et la croisée des arts,,,2010 et après,,Musique,,Orgue,,,,Saison (21 juin - 5 septembre),"43.4509676414, 5.85962873535",43.4509676414,5.85962873535,,,,,,,,,,,,,,,,
52,Emotions de rue,Communale,38563,93 Avenue Jean Jaurès,Maison des Jeunes et de la Culture Voiron,http://www.mjc-voiron.org/culturel/emotions-de-rue/,contact@mjc-voiron.org,,,Pluridisciplinaire,Arts de la rue,,,,,Saison (21 juin - 5 septembre),"45.3791720843, 5.58240310671",45.3791720843,5.58240310671,,,,,,,,,,,,,,,,
53,Vidéoformes,Communale,63113,190-194 Boulevard Gustave Flaubert,,https://videoformes.com,videoformes@videoformes.com,De 1980 à 1989,1986,"Arts visuels, arts numériques",,,,"Arts numériques, Installation, Performance, Photographie, Sculpture",,Avant-saison (1er janvier - 20 juin),"45.7856492991, 3.11554542903",45.7856492991,3.11554542903,,,,,,,,,,,,,,,,
54,Salon du livre,Communale,73135,564 route De la cascade,Le Colporteur,,,De 1990 à 1999,30ème,"Livre, littérature",,,,,Fiction,Après-saison (6 septembre - 31 décembre),"45.3048823312, 6.38960278843",45.3048823312,6.38960278843,,,,,,,,,,,,,,,,
55,Journées internationales de Lourmarin,Communale,84068,2 Avenue Philippe de girard,Espace albert camus,https://www.rencontres-camus.com/journees,andree.fosty@sfr.fr,De 1980 à 1989,1983,"Livre, littérature",,Autre,Documentaire,Photographie,Autre,Après-saison (6 septembre - 31 décembre),"43.7780333839, 5.36616174066",43.7780333839,5.36616174066,,,,,,,,,,,,,,,,
56,Rencontre,Communale,45235,147 rue Nationale,,https://www.ville-ormes.fr/,,2010 et après,2010,Musique,,"Musique classique, Musique contemporaine, Musiques du monde, Musiques traditionnelles",,,,Avant-saison (1er janvier - 20 juin),"47.9478927355, 1.8071403661",47.9478927355,1.8071403661,,,,,,,,,,,,,,,,
57,Salon du livre de Péronne,Communale,80620,Avenue de la République,"Espace Mac Orlan, Avenue de la République",https://www.ville-peronne.fr,bibliotheque@ville-peronne.fr,2010 et après,2015,"Livre, littérature",,,,,Généraliste,Avant-saison (1er janvier - 20 juin),"49.928328669, 2.93001266218",49.928328669,2.93001266218,,,,,,,,,,,,,,,,
58,Gratte-Monde,Communale,38421,33 Avenue Ambroise Croizat,Maison de la Poésie Rhône Alpes,http://www.maisondelapoesierhonealpes.com,,de 1980 à 1989,1986,"Livre, littérature",,,,,Poésie,Après-saison (6 septembre - 31 décembre),"45.1762012553, 5.76476360737",45.1762012553,5.76476360737,,,,,,,,,,,,,,,,
59,Grands Espaces Littéraires,Communale,63417,Rue Des mailleries,Mairie,,,2010 et après,11ème,"Livre, littérature",,,,,Fiction,Après-saison (6 septembre - 31 décembre),"45.8388005016, 3.03448182973",45.8388005016,3.03448182973,,,,,,,,,,,,,,,,
60,Le salon entre les mondes,Communale,15014,13 Rue de la Jordanne,Association Les Cantaloups-Garous,,,2010 et après,3ème,"Livre, littérature",,,,,Science-fiction,Après-saison (6 septembre - 31 décembre),"44.9245233686, 2.44162453828",44.9245233686,2.44162453828,,,,,,,,,,,,,,,,
61,Coul'heures d'automne,Communale,6004,170 Chemin Des terriers,,,labelnoteprod@gmail.com,2010 et après,2020,"Arts visuels, arts numériques",,,,"Installation, peinture, street art",,Après-saison (6 septembre - 31 décembre),"43.587465146, 7.10635418256",43.587465146,7.10635418256,,,,,,,,,,,,,,,,
62,Festival Drums Summit,Communale,31555,10 Rue Claude-Perrault,,http://www.drumssummit.com,prod@drumssummit.fr,De 1990 à 1999,,Musique,,Musiques actuelles,,,,Avant-saison (1er janvier - 20 juin),"43.5963814303, 1.43167293364",43.5963814303,1.43167293364,,,,,,,,,,,,,,,,
63,Aspects des Musiques d'Aujourd'hui,Communale,14118,1 rue du Carel,,https://conservatoire-orchestre.caen.fr/programmation?type_prog=1528,billetterie-orchestre@caenlamer.fr,De 1980 à 1989,1982,Musique,,"Musique classique, Musique contemporaine",,,,Avant-saison (1er janvier - 20 juin),"49.1847936737, -0.369801713036",49.1847936737,-0.369801713036,,,,,,,,,,,,,,,,
64,Festival du cinéma européen,Communale,81099,3 Place Rives Thomas,Bp 119,https://eurofilmfest-lille.com/,,De 2000 à 2009,,"Cinéma, audiovisuel",,,,,,Avant-saison (1er janvier - 20 juin),"43.9170968776, 1.88647213801",43.9170968776,1.88647213801,,,,,,,,,,,,,,,,
65,Faveurs,Communale,83069,13 Cours De strasbourg,1 rue racine - bp 5210 - 83 095 toulon cedex,https://faveursdeprintemps.com/,administration@tandem83.com,De 2000 à 2009,2003,Musique,,"Pop, folk",,,,Avant-saison (1er janvier - 20 juin),"43.1018713534, 6.18898508469",43.1018713534,6.18898508469,,,,,,,,,,,,,,,,
66,Pile au RDV,Communale,59512,14 Place Faidherbe,,https://www.laconditionpublique.com,p.coutant@laconditionpublique.com,De 2000 à 2009,2008,Pluridisciplinaire,,,,,,Saison (21 juin - 5 septembre),"50.6879774811, 3.18258434623",50.6879774811,3.18258434623,,,,,,,,,,,,,,,,
67,Les musiques de Beauregard,Communale,69204,106 Avenue Clémenceau,Hôtel de Ville,http://www.lesmusiquesdebeauregard.fr/,festival.baroque@mairie-saintgenislaval.fr,De 2000 à 2009,15ème,Spectacle vivant,Pluridisciplinaire à dominante spectacle vivant,,,,,Avant-saison (1er janvier - 20 juin),"45.6936777293, 4.78919028453",45.6936777293,4.78919028453,,,,,,,,,,,,,,,,
68,Music en vignes,Communale,13080,Chemin De pommier,Domaine viticole - château paradis,,contact@musicenvignes.com,De 2000 à 2009,2006,Musique,,Musiques actuelles,,,,Saison (21 juin - 5 septembre),"43.6518285649, 5.43958389565",43.6518285649,5.43958389565,,,,,,,,,,,,,,,,
69,Coup de théâtre à auribeau,Communale,6007,1 Rue Place en l'aire,,,julie.marot11@gmail.com,2010 et après,,Spectacle vivant,Théâtre,,,,,Saison (21 juin - 5 septembre),"43.612406867, 6.91211356657",43.612406867,6.91211356657,,,,,,,,,,,,,,,,
70,Fables lab,Communale,6029,1 Avenue Jean de noailles,Médiathèque noailles,https://www.cannes.com/fr/culture/mediatheques-et-bibliotheques.html,mediatheques@ville-cannes.fr,2010 et après,2016,Spectacle vivant,,,,,,Avant-saison (1er janvier - 20 juin),"43.5526202843, 7.00427592728",43.5526202843,7.00427592728,,,,,,,,,,,,,,,,
71,Lire en Baie,Communale,80228,Rue Jules Verne,"Ilot Jules Verne, Rue Jules Verne",,lireenbaie@gmail.com,2010 et après,2016,"Livre, littérature",,,,,Généraliste,Avant-saison (1er janvier - 20 juin),"50.2439123347, 1.62316246487",50.2439123347,1.62316246487,,,,,,,,,,,,,,,,
72,Salon du livre Le Touquet,Communale,62826,Avenue de l'hippodrome,"Salle des quatre saisons, avenue de l'hippodrome",https://www.letouquet.com,malorie.b@letouquet.com,De 1980 à 1989,1982,"Livre, littérature",,,,,Généraliste,Après-saison (6 septembre - 31 décembre),"50.5083984501, 1.59923820583",50.5083984501,1.59923820583,,,,,,,,,,,,,,,,
73,Montluçon Art Digital,Communale,3187,93 Rue de l'Abbaye,Association Shakers,,,2010 et après,3ème,"Arts visuels, arts numériques",,,,Peinture,,Saison (21 juin - 5 septembre),"46.3375770064, 3.45102443628",46.3375770064,3.45102443628,,,,,,,,,,,,,,,,
74,Armentières en bulles,Communale,59017,Rue Paul Pouchain,"L'Albatros, Rue Paul Pouchain",http://www.armentieres.fr/mediatheque/,eberteloot@ville-armentieres.fr,2010 et après,2018,"Livre, littérature",,,,,"Bande dessinée, comics, manga",Avant-saison (1er janvier - 20 juin),"50.6913797537, 2.8797155328",50.6913797537,2.8797155328,,,,,,,,,,,,,,,,
75,Festival Grain de sel,Communale,82033,12 Avenue Jean Moulin,,https://festivalgraindesel.com/p/presentation/,coordination@festivalgraindesel.com,2010 et après,,Musique,,,,,,Après-saison (6 septembre - 31 décembre),"44.0490326525, 1.12348123121",44.0490326525,1.12348123121,,,,,,,,,,,,,,,,
76,Polarlens,Communale,62498,Rue Denis Cordonnier,"Salle Bertinchamps, Rue Denis Cordonnier",https://polarlens.fr,adufrenne@mairie-lens.fr,De 1990 à 1999,1996,"Livre, littérature",,,,,Polar,Avant-saison (1er janvier - 20 juin),"50.4374264148, 2.82105851259",50.4374264148,2.82105851259,,,,,,,,,,,,,,,,
77,F'estival Les pépites,Communale,74258,1 Place du Gros Tilleul,,https://samoens.com/evenements-ete-2021/,adrien@samoens.com,2010 et après,,Musique,,"Chanson ou variété française, jazz, blues, Musique contemporaine, Musiques du monde, Musiques électroniques, techno, Pop, rock, RnB",,,,Saison (21 juin - 5 septembre),"46.0878467821, 6.74329361493",46.0878467821,6.74329361493,,,,,,,,,,,,,,,,
78,À Vaulx jazz,Communale,69256,Place De la Nation,Hôtel de Ville,http://www.avaulxjazz.com,,de 1980 à 1989,1988,Musique,,Musiques actuelles,,,,Après-saison (6 septembre - 31 décembre),"45.7858821061, 4.92637767698",45.7858821061,4.92637767698,,,,,,,,,,,,,,,,
79,Biennale Appel d'air,Communale,62041,2 Rue Rue des Jongleurs,,https://www.biennaleappeldair.fr/,appeldair5.mem@gmail.com,2010 et après,2016,"Arts visuels, arts numériques",,,,"Installation, Peinture, Photographie, Sculpture, Street art, Ateliers avec les habitants de la ville",,Avant-saison (1er janvier - 20 juin),"50.2898964997, 2.76587316711",50.2898964997,2.76587316711,,,,,,,,,,,,,,,,
80,Terre de bulles,Communale,43112,Place De la Favière,Mairie,http://www.ville-langeac.fr,,2010 et après,11ème,"Livre, littérature",,,,,Bande dessinée,Avant-saison (1er janvier - 20 juin),"45.0822541836, 3.47806203807",45.0822541836,3.47806203807,,,,,,,,,,,,,,,,
81,Estiv'arcs,Communale,83004,,Centre ville,https://www.lesesterelles.com,les.esterelles@gmail.com,2010 et après,2016,Spectacle vivant,,,,,,Saison (21 juin - 5 septembre),"43.4509882105, 6.48970221222",43.4509882105,6.48970221222,,,,,,,,,,,,,,,,
82,Fête du livre de Montataire,Communale,60414,,"Les bibliothèques, le Palace, le Château de Montataire",https://www.mairie-montataire.fr,ggouiffes@mairie-montataire.fr,De 2000 à 2009,2015,"Livre, littérature",,,,,Généraliste,Avant-saison (1er janvier - 20 juin),"49.2632645948, 2.43135724334",49.2632645948,2.43135724334,,,,,,,,,,,,,,,,
83,Salon plaisir de lire,Communale,15248,,Bibliothèque de Valuéjols - Association Plaisir de Lire,,,De 1990 à 1999,1999,"Livre, littérature",,,,,Fiction,Avant-saison (1er janvier - 20 juin),"45.0532332221, 2.90711082999",45.0532332221,2.90711082999,,,,,,,,,,,,,,,,
84,Les guitares,Communale,69266,51 Rue du 4 août 1789,Association Centre Léo Lagrange Espace Tonkin,,,de 1980 à 1989,1989,Musique,,Musiques actuelles,,,,Après-saison (6 septembre - 31 décembre),"45.7707704179, 4.88845817426",45.7707704179,4.88845817426,,,,,,,,,,,,,,,,
85,Flâneries d'art contemporain dans les jardins aixois,Communale,13001,9 Avenue Paul cézanne,,https://www.aix-en-oeuvres.com,aix-en-oeuvres@wanadoo.fr,De 2000 à 2009,2007,Pluridisciplinaire,Théâtre,Classique,,Sculpture,Autre,Saison (21 juin - 5 septembre),"43.5360708378, 5.39857444582",43.5360708378,5.39857444582,,,,,,,,,,,,,,,,
86,Les nuits du real,Communale,83004,,Théâtre de verdure,,nico041282@gmail.com,2010 et après,,Musique,,"Chanson ou variété française, musiques traditionnelles, opéra, pop, rock",,,,Saison (21 juin - 5 septembre),"43.4509882105, 6.48970221222",43.4509882105,6.48970221222,,,,,,,,,,,,,,,,
87,Classic parc orchestra,Communale,6161,30 Allée Simone veil,Pôle culturel auguste escoffier,https://www.villeneuveloubet.fr,service-culturel@mairie-villeneuve-loubet.fr,2010 et après,2017,Musique,,Musique classique,,,,Saison (21 juin - 5 septembre),"43.6492560734, 7.10728434873",43.6492560734,7.10728434873,,,,,,,,,,,,,,,,
88,Salon du livre jeunesse de Wimereux,Communale,62893,,"Salons des jardins de la Baie Saint Jean, Rue Sainte Adrienne",,bibliotheque.wimereux@orange.fr,2010 et après,2018,"Livre, littérature",,,,,"Généraliste, jeunesse, lecture",Avant-saison (1er janvier - 20 juin),"50.7792497892, 1.6134323131",50.7792497892,1.6134323131,,,,,,,,,,,,,,,,
89,Les chants de mars,Communale,69123,5 Place Saint Jean,Maison des Jeunes et de La Culture du Vieux Lyon,https://www.leschantsdemars.com,info@leschantsdemars.com,De 2000 à 2009,2007,Musique,,Musiques actuelles,,,,Avant-saison (1er janvier - 20 juin),"45.6609705564, 4.72076320026",45.6609705564,4.72076320026,,,,,,,,,,,,,,,,
90,Festi'bd,Communale,3190,Avenue du professeur Etienne SORREL,Association Viltaïs,http://festibd.fr,,De 2000 à 2009,19ème,"Livre, littérature",,,,,Bande dessinée,Avant-saison (1er janvier - 20 juin),"46.5624641056, 3.32662040221",46.5624641056,3.32662040221,,,,,,,,,,,,,,,,
91,Fémin'arte,Communale,6004,5 Place Amiral barnaud,Salle le tribunal,https://www.theatre-tribunal.fr,info@mediatheque-casa.fr,De 1990 à 1999,1997,Spectacle vivant,Théâtre,,,,,Avant-saison (1er janvier - 20 juin),"43.587465146, 7.10635418256",43.587465146,7.10635418256,,,,,,,,,,,,,,,,
92,Lille Poésie,Communale,59350,,"À Lille dans de nombreux lieux culturels (Médiathèque Jean Lévy, Palais des Beaux-Arts, Maisons Folies, Théâtre du Nord...)",https://www.escalesdeslettres.com,escalesdeslettres@wanadoo.fr,2010 et après,2018,"Livre, littérature",,,,,Poésie,Après-saison (6 septembre - 31 décembre),"50.6317183168, 3.04783272312",50.6317183168,3.04783272312,,,,,,,,,,,,,,,,
93,Salon du livre,Communale,38417,7 Rue Du Colombier,CC Saint-Marcellin Vercors Isère,,,2010 et après,,"Livre, littérature",,,,,Fiction,Avant-saison (1er janvier - 20 juin),"45.3845890951, 5.97577742061",45.3845890951,5.97577742061,,,,,,,,,,,,,,,,
94,Festival flamenco de Toulouse (automne),Communale,31555,11 Rue Jeanne de Segla,,,almaflamenca@netcourrier.com,De 2000 à 2009,2002,Spectacle vivant,,"Musiques traditionnelles, Musiques du monde",,,,Après-saison (6 septembre - 31 décembre),"43.5963814303, 1.43167293364",43.5963814303,1.43167293364,,,,,,,,,,,,,,,,
95,Sang d'encre,Communale,38544,2 Rue Laurent Florentin,Maison des Jeunes et de la Cutlure de Vienne,http://www.sangdencre.org/,,De 1990 à 1999,1994,"Livre, littérature",,,,,Polar,Après-saison (6 septembre - 31 décembre),"45.520578372, 4.88135156154",45.520578372,4.88135156154,,,,,,,,,,,,,,,,
96,Festival de la BD d'Anzin-Saint-Aubin,Communale,62037,Rue des Ecoles,"Salle des fêtes ""les Viviers"", Rue des écoles",http://www.imaginartois.fr,contact@imaginartois.fr,2010 et après,2015,"Livre, littérature",,,,,Bande dessinée,Saison (21 juin - 5 septembre),"50.3178758623, 2.74105063372",50.3178758623,2.74105063372,,,,,,,,,,,,,,,,
97,"Editions d'art, livres d'artistes",Communale,69154,25 Avenue Guerpillon,Association Geneviève Dumont,,,De 2000 à 2009,2006,"Livre, littérature",,,,,Autres,Après-saison (6 septembre - 31 décembre),"45.7685281587, 4.65869632922",45.7685281587,4.65869632922,,,,,,,,,,,,,,,,
98,Les mille-feuilles,Communale,80271,Place des Pilotes,"Ancien Tribunal de Commerce, Place des Pilotes",https://www.lepassemuraille.net,contact@lepassemuraille.net,2010 et après,2015,"Livre, littérature",,,,,Jeunesse,Après-saison (6 septembre - 31 décembre),"50.0062828894, 3.13298664943",50.0062828894,3.13298664943,,,,,,,,,,,,,,,,
99,Festival du château,Communale,83130,1 Rue De la république,Château de solliès-pont,,festivalduchateau@gmail.com,De 2000 à 2009,2006,Musique,,Musiques actuelles/stand up,,,,Saison (21 juin - 5 septembre),"43.1907611248, 6.06327697157",43.1907611248,6.06327697157,,,,,,,,,,,,,,,,
100,Toutifesti,Communale,84138,32 Rue Des cordeliers,,https://www.theatredurondpointpaca.com,theatredurondpoint@gmail.com,2010 et après,2015,Spectacle vivant,Théâtre,,,,,Après-saison (6 septembre - 31 décembre),"44.3771588623, 4.99354936197",44.3771588623,4.99354936197,,,,,,,,,,,,,,,,
101,Les Giboulivres,Communale,38140,390 Rue Henri Fabre,Communauté de communes Le Grésivaudan,http://bibliotheques.le-gresivaudan.fr/,,De 2000 à 2009,2003,"Livre, littérature",,,,,Fiction,Avant-saison (1er janvier - 20 juin),"45.2820293287, 5.88883985593",45.2820293287,5.88883985593,,,,,,,,,,,,,,,,
102,Cirque & Fanfares,Communale,39198,1 Place de l'Europe,,https://www.cirqueetfanfaresadole.com/,d.gueniat@dole.org / lucile.gaillard@grand-dole.fr,2010 et après,2011,Spectacle vivant,,,,,,Avant-saison (1er janvier - 20 juin),"47.0755452538, 5.50062446099",47.0755452538,5.50062446099,,,,,,,,,,,,,,,,
103,Festival flamenco de Toulouse (printemps),Communale,31555,11 Rue Jeanne de Segla,,,almaflamenca@netcourrier.com,De 2000 à 2009,2002,Spectacle vivant,,"Musiques traditionnelles, Musiques du monde",,,,Avant-saison (1er janvier - 20 juin),"43.5963814303, 1.43167293364",43.5963814303,1.43167293364,,,,,,,,,,,,,,,,
104,Salon du livre autour du Mémorial de l'Otan,Communale,62156,3 Allée de l'espace Futurum,"Espace Futurum, 3 allée de l'espace Futurum",,sdlfmo@gmail.com,2010 et après,2017,"Livre, littérature",,,,,Histoire,Après-saison (6 septembre - 31 décembre),"50.8931678254, 1.77107438801",50.8931678254,1.77107438801,,,,,,,,,,,,,,,,
105,Festival des Grandes Heures de Cluny,Communale,71137,6 Rue d'Avril,Hôtel des Monnaies,https://www.grandesheuresdecluny.com/,lesgrandesheuresdecluny@gmail.com,Avant 1980,1967,Musique,,"Musique classique, Opéra, Danse Classique",,,,Saison (21 juin - 5 septembre),"46.4303628582, 4.67033276327",46.4303628582,4.67033276327,,,,,,,,,,,,,,,,
106,Les nuits du château de Montfort,Communale,83083,7 Rue De la rouguière,Jardins de la mairie,https://www.artscenicum.fr,rp@artscenicum.fr,De 1990 à 1999,1999,Spectacle vivant,,,,,,Saison (21 juin - 5 septembre),"43.4812536631, 6.12560767207",43.4812536631,6.12560767207,,,,,,,,,,,,,,,,
107,En Grangeons la musique,Communale,1403,,Association en Grangeons la musique,https://www.engrangeonslamusique.fr,engrangeonslamusique@wanadoo.fr,De 2000 à 2009,2006,Musique,,Musiques actuelles,,,,Avant-saison (1er janvier - 20 juin),"45.8133219416, 5.44125880379",45.8133219416,5.44125880379,,,,,,,,,,,,,,,,
108,Les rues en musique,Communale,13004,Place De la république,Mairie,https://www.ville-arles.fr,c.ponce@ville-arles.fr,De 2000 à 2009,2003,Musique,,Musique classique,,,,Saison (21 juin - 5 septembre),"43.5468692378, 4.66215642574",43.5468692378,4.66215642574,,,,,,,,,,,,,,,,
109,Midi festival,Communale,83069,Route De l'almanare,Site archéologique d'olbia,https://www.midi-festival.com,info@midi-festival.com,De 2000 à 2009,2005,Musique,,Musique,,,,Saison (21 juin - 5 septembre),"43.1018713534, 6.18898508469",43.1018713534,6.18898508469,,,,,,,,,,,,,,,,
110,Festival des enfants du jazz,Communale,4019,,Parc de la Sapinière,https://www.barcelonnette.com,info@barcelonnette.com,De 1990 à 1999,1995,Musique,Théâtre,Jazz,,,,Saison (21 juin - 5 septembre),"44.3785614205, 6.65215089713",44.3785614205,6.65215089713,,,,,,,,,,,,,,,,
111,"En avant-pays, le livre",Communale,73039,585 Route De Tramonet,Syndicat Mixte de l'Avant-Pays Savoyard,https://avant-pays-savoyard.wixsite.com/fete-litteraire,,2010 et après,2012,"Livre, littérature",,,,,Fiction,Après-saison (6 septembre - 31 décembre),"45.5651185204, 5.6763421885",45.5651185204,5.6763421885,,,,,,,,,,,,,,,,
112,Biennale d'aquarelle de Brioude,Communale,43040,Avenue Léon Blum,Association Festival d'Aquarelle Brioude,,,2010 et après,9ème,"Arts visuels, arts numériques",,,,Peinture,,Saison (21 juin - 5 septembre),"45.2964378846, 3.38526303303",45.2964378846,3.38526303303,,,,,,,,,,,,,,,,
113,Festival El Medio Dia,Communale,82044,,"Le Théâtre Aleph d' Ivry-sur-Seine,  association El Mediodia de Aleph",http://www.corbarieu.fr/fr/culture-et-tourisme/festival-el-mediodia.html,roland.terrancle@orange.fr,De 2000 à 2009,,Musique,,culture hispanique et latino-américaine,,,,Saison (21 juin - 5 septembre),"43.9412424129, 1.38125963307",43.9412424129,1.38125963307,,,,,,,,,,,,,,,,
114,Escapades litteraires,Communale,83068,,,,,2010 et après,2015,"Livre, littérature",,,,,"Pas de sous-catégorie, toutes thématiques",Avant-saison (1er janvier - 20 juin),"43.2820282501, 6.53303224114",43.2820282501,6.53303224114,,,,,,,,,,,,,,,,
115,Salon de la BD et des arts graphiques,Communale,59512,9 Rue de l'Hospice,Salle Watremez,https://www.facebook.com/festivalbdrbx/,hwaguet@ville-roubaix.fr,2010 et après,2012,"Livre, littérature",,,,,"Bande dessinée, comics, manga",Avant-saison (1er janvier - 20 juin),"50.6879774811, 3.18258434623",50.6879774811,3.18258434623,,,,,,,,,,,,,,,,
116,Festival de musique de Chambre,Communale,42218,,Association BWD 12-Le Boulain,http://www.bwd12.fr/,festivalbwd12@gmail.com,De 2000 à 2009,15ème,Musique,,Musique classique,,,,Saison (21 juin - 5 septembre),"45.4301235512, 4.37913997076",45.4301235512,4.37913997076,,,,,,,,,,,,,,,,
117,Parole ambulante,Communale,69259,7 Place De la Paix,Espace Pandora,http://espacepandora.org/portfolio-item/parole-daube/,espacepandora@free.fr,De 1990 à 1999,1996,Spectacle vivant,,,,,,Après-saison (6 septembre - 31 décembre),"45.7037728826, 4.88137668221",45.7037728826,4.88137668221,,,,,,,,,,,,,,,,
118,Microscopies,Communale,59350,235 Boulevard Paul Painlevé,"Auberge de Jeunesse HI Lille, 235 bd Paul Painlevé",https://lespinatas.com,les.pinatas@gmail.com,2010 et après,2016,"Livre, littérature",,,,,"Bande dessinée, comics, manga, bibliophilie, art, livre d'art, jeunesse, lecture, littérature régionale, littérature et écriture contemporaine, poésie, micro-édition et images imprimées",Après-saison (6 septembre - 31 décembre),"50.6317183168, 3.04783272312",50.6317183168,3.04783272312,,,,,,,,,,,,,,,,
119,Des montagnes et des bulles,Communale,74206,614 Avenue de Sciez,,http://www.desmontagnesetdesbulles.com,,2010 et après,8ème,"Livre, littérature",,,,,Bande dessinée,Après-saison (6 septembre - 31 décembre),"46.3132216712, 6.50123814187",46.3132216712,6.50123814187,,,,,,,,,,,,,,,,
120,Vochora,Communale,7324,Place Saint-Julien,Hôtel de la Tourette - Association Vochora,,,De 2000 à 2009,22ème,Musique,,Musique classique,,,,Saison (21 juin - 5 septembre),"45.0535734386, 4.81493474284",45.0535734386,4.81493474284,,,,,,,,,,,,,,,,
121,Rencontres littéraires de cannes,Communale,6029,1 Avenue Jean de noailles,,https://www.cannes.com/fr/culture/mediatheques-et-bibliotheques.html,mediatheques@ville-cannes.fr,2010 et après,2014,"Livre, littérature",,,,,Fictions,Après-saison (6 septembre - 31 décembre),"43.5526202843, 7.00427592728",43.5526202843,7.00427592728,,,,,,,,,,,,,,,,
122,Ecrans Mixtes,Communale,69123,7 Rue Passet,,,,2010 et après,9ème,"Cinéma, audiovisuel",,,LGBTI (toutes disciplines),,,Avant-saison (1er janvier - 20 juin),"45.6462662502, 4.44570095396",45.6462662502,4.44570095396,,,,,,,,,,,,,,,,
123,Salon international du livre de montagne,Communale,74208,35 Place Du docteur Joly,"Association ""Montagne en Pages""",,,De 1990 à 1999,29ème,"Livre, littérature",,,,,Non fiction,Saison (21 juin - 5 septembre),"45.9545838758, 6.74056895873",45.9545838758,6.74056895873,,,,,,,,,,,,,,,,
124,Festival de Lacoste,Communale,84058,Route Du château,Théâtre des carrières,https://www.festivaldelacoste.com,,De 2000 à 2009,2000,Musique,,Musique classique,,,,Saison (21 juin - 5 septembre),"43.8257421042, 5.26592271907",43.8257421042,5.26592271907,,,,,,,,,,,,,,,,
125,Rendez-vous des bulles,Communale,59526,,Médiathèque des Encres - Espace Jean Ferrat,http://www.mediatheques-porteduhainaut.fr/,smuller@mediatheque-st-amand.com,De 2000 à 2009,2008,"Livre, littérature",,,,,Bande dessinée,Avant-saison (1er janvier - 20 juin),"50.4401000981, 3.44460708029",50.4401000981,3.44460708029,,,,,,,,,,,,,,,,
126,Festival du Rythme en Cévennes,Communale,30270,370 Avenue Jean Rampon,Mairie De Saint Jean Du Pin,https://www.facebook.com/Festival-du-Rythme-en-C%C3%A9vennes-2025532951037192/,gasparino30@club-internet.fr,De 1990 à 1999,1990,Musique,,"Musiques électroniques, techno",,,,Saison (21 juin - 5 septembre),"44.1164232741, 4.0327398577",44.1164232741,4.0327398577,,,,,,,,,,,,,,,,
127,Tamazgha,Communale,13055,178 Avenue De saint-louis,Théâtre le 15e art,,sud.culture@gmail.com,De 2000 à 2009,2006,Musique,,Musiques du monde (berbère),,,,Saison (21 juin - 5 septembre),"43.296346, 5.369889",43.296346,5.369889,,,,,,,,,,,,,,,,
128,Les scènes du loup,Communale,6161,,Théâtre de verdure,https://www.villeneuveloubet.fr,,De 2000 à 2009,2008,Musique,,,,,,Saison (21 juin - 5 septembre),"43.6492560734, 7.10728434873",43.6492560734,7.10728434873,,,,,,,,,,,,,,,,
129,La guinguette,Communale,13055,,,https://www.facebook.com/apecb/?ref=bookmarks,espaceculturelbusserine@gmail.com,De 1980 à 1989,1987,Spectacle vivant,Arts de la rue,Hip-hop/rap/slam,Film d'animation,,,Saison (21 juin - 5 septembre),"43.296346, 5.369889",43.296346,5.369889,,,,,,,,,,,,,,,,
130,Festival Une Saison Graphique,Intercommunale,76351,,ESADHaR,,blanche.bertrand@esadhar.org,De 2000 à 2009,2009,"Arts visuels, arts numériques",,,,,,Avant-saison (1er janvier - 20 juin),"49.498452502, 0.140153719153",49.498452502,0.140153719153,,,,,,,,,,,,,,,,
131,Liv'in Embrun,Départementale,5046,Place Place barthelon,,,,2010 et après,2011,Musique,,,Musique du monde,,,Saison (21 juin - 5 septembre),"44.5804294908, 6.47559298927",44.5804294908,6.47559298927,,,,,,,,,,,,,,,,
132,Moments lyriques de Chartres et d'Eure et loir,Départementale,28085,,,http://www.moments-lyriques.com/,,De 1980 à 1989,1989,Musique,,Musique classique,,,,Après-saison (6 septembre - 31 décembre),"48.4471464884, 1.50570610616",48.4471464884,1.50570610616,,,,,,,,,,,,,,,,
133,Jazz de mars,Départementale,28085,,,https://www.jazzdemars.com,,De 1990 à 1999,1995,Musique,,"Jazz, Blues",,,,Avant-saison (1er janvier - 20 juin),"48.4471464884, 1.50570610616",48.4471464884,1.50570610616,,,,,,,,,,,,,,,,
134,Charivari jazz festival,Départementale,41149,,,https://www.figureslibres.org/charivari-jazz-festival/,,2010 et après,2018,Musique,,"Jazz, Blues",,,,Avant-saison (1er janvier - 20 juin),"47.7650269644, 0.854948191169",47.7650269644,0.854948191169,,,,,,,,,,,,,,,,
135,La Passerelle,Départementale,36241,,,http://www.valdelindrebrenne.com/,,De 2000 à 2009,,Musique,,Musiques actuelles,,,,Saison (21 juin - 5 septembre),"46.8446125894, 1.51599368144",46.8446125894,1.51599368144,,,,,,,,,,,,,,,,
136,Jours de fête du court métrage d'humour,Départementale,36208,,,http://www.tatienfete.com/,,De 2000 à 2009,2007,"Cinéma, audiovisuel",,,Fiction long métrage,,,Après-saison (6 septembre - 31 décembre),"46.5042219323, 2.06769602901",46.5042219323,2.06769602901,,,,,,,,,,,,,,,,
137,Festival de la Céramique,Départementale,30010,12 Avenue Pasteur Rollin,,https://www.festival-ceramique-anduze.org/,contact@officeculturel.com,De 2000 à 2009,2004,"Arts visuels, arts numériques",,,,,,Saison (21 juin - 5 septembre),"44.0507893674, 3.97484165309",44.0507893674,3.97484165309,,,,,,,,,,,,,,,,
138,Sacrée Musique !,Départementale,83119,Rue de l'église,Eglise paroissiale,https://sacreemusique.fr/,,2010 et après,2021,Musique,,Musique sacree,,,,Après-saison (6 septembre - 31 décembre),"43.262314383, 6.66343039908",43.262314383,6.66343039908,,,,,,,,,,,,,,,,
139,Récidive 1940,Départementale,45234,,,https://www.cinemalescarmes.com/recidive/,,2010 et après,2020,"Cinéma, audiovisuel",,,Fiction long métrage,,,Après-saison (6 septembre - 31 décembre),"47.8828634214, 1.91610357477",47.8828634214,1.91610357477,,,,,,,,,,,,,,,,
140,Les mercredis du rire,Départementale,13039,Place Du marché,Avenue du général de gaulle,,tourisme@mairie-fos-sur-mer.fr,2010 et après,2016,Spectacle vivant,,Spectacle d'humour,,,,Saison (21 juin - 5 septembre),"43.4556812107, 4.90452133912",43.4556812107,4.90452133912,,,,,,,,,,,,,,,,
141,Festival du paon,Départementale,4018,,Le paon - le Contadour,https://www.festivaldupaon.com,festivaldupaon@gmail.com,2010 et après,2016,Spectacle vivant,Théâtre,,,,,Saison (21 juin - 5 septembre),"44.0269448077, 5.64964715248",44.0269448077,5.64964715248,,,,,,,,,,,,,,,,
142,Rêves de cirque,Départementale,1093,1 Rue des peupliers,,https://www.revesdecirque.fr,direction@cslapasserelle.fr,2010 et après,,Spectacle vivant,Arts du cirque,,,,,Saison (21 juin - 5 septembre),"46.1232390685, 4.95810003714",46.1232390685,4.95810003714,,,,,,,,,,,,,,,,
143,Forts en fête,Départementale,5023,,,,,2010 et après,2010,Musique,,,,,,Saison (21 juin - 5 septembre),"44.8994986041, 6.64947524018",44.8994986041,6.64947524018,,,,,,,,,,,,,,,,
144,Ateliers Jazz,Départementale,53152,1 Voie De la Guiternière,BP 16,https://www.festivaljazz-meslay.com,j.seguin@paysmeslaygrez.fr,De 1990 à 1999,1998,Musique,,"Jazz, blues",,,,Avant-saison (1er janvier - 20 juin),"47.9469156243, -0.558693863131",47.9469156243,-0.558693863131,,,,,,,,,,,,,,,,
145,Les Rendez vous de l'Erdre,Départementale,44109,10 Allée Duquesne,,https://rendezvouserdre.com,loic.breteau@ace-nantes.fr,De 1980 à 1989,1987,Musique,,,,,,Saison (21 juin - 5 septembre),"47.2316356767, -1.54831008605",47.2316356767,-1.54831008605,,,,,,,,,,,,,,,,
146,Electro alternativ,Départementale,31555,7 Rue Bernard Palissy,,,contact@asso-regarts.com,De 2000 à 2009,2004,Musique,,,,,,Après-saison (6 septembre - 31 décembre),"43.5963814303, 1.43167293364",43.5963814303,1.43167293364,,,,,,,,,,,,,,,,
147,Fantasy,Départementale,6155,Boulevard Jacques ugo,Espace loisirs francie huger,https://www.facebook.com/festivalfantasyvallauris,culture@vallauris.fr,2010 et après,2019,"Livre, littérature",,Manga et culture asiatique,,,,Après-saison (6 septembre - 31 décembre),"43.5766472999, 7.05836612893",43.5766472999,7.05836612893,,,,,,,,,,,,,,,,
148,Coup de Projecteur,Départementale,3023,27 Rue Jean-Baptiste Burlot,,https://www.ville-bellerive-sur-allier.fr,culture@ville-bellerive.com,2010 et après,,"Arts visuels, arts numériques",,,,Arts numériques,,Avant-saison (1er janvier - 20 juin),"46.1214944433, 3.39719062136",46.1214944433,3.39719062136,,,,,,,,,,,,,,,,
149,Festival opus - opéra lyrique de Gattières,Départementale,6064,20 Montée Du château,Place Grimaldi,,contact@opus-opera.com,De 1990 à 1999,1990,Musique,,Musiques lyriques,,,,Saison (21 juin - 5 septembre),"43.7652195423, 7.16877468184",43.7652195423,7.16877468184,,,,,,,,,,,,,,,,
150,Festival d'Ambronay,Départementale,1007,place Place Thollon,,https://www.ambronay.org,marina.roche-lecca@ambronay.org,De 1980 à 1989,1980,Musique,,Musique baroque,,,,Après-saison (6 septembre - 31 décembre),"46.0055913782, 5.35760660735",46.0055913782,5.35760660735,,,,,,,,,,,,,,,,
151,Le Mans Pop Festival,Départementale,72181,30 Rue Huchepie,,https://www.lemanspopfestival.com,bthomas.lmcc@gmail.com,De 1990 à 1999,1993,Musique,,,,,,Avant-saison (1er janvier - 20 juin),"47.9885256718, 0.200030493539",47.9885256718,0.200030493539,,,,,,,,,,,,,,,,
152,Jazz au Moulin,Départementale,45232,127 rue Marcel Belot,,https://jazzaumoulin.wixsite.com/festival,info@mjcmoulin-olivet.org,2010 et après,,Musique,,"Jazz, blues, Musiques du monde",,,,Après-saison (6 septembre - 31 décembre),"47.8546997503, 1.88823884753",47.8546997503,1.88823884753,,,,,,,,,,,,,,,,
153,Les rencontres à l'échelle,Départementale,13055,41 Rue Jobin,Friche la belle de mai,https://www.lesrencontresalechelle.com,communication@lesbancspublics.com,De 2000 à 2009,,Spectacle vivant,Théâtre,,,,,Après-saison (6 septembre - 31 décembre),"43.296346, 5.369889",43.296346,5.369889,,,,,,,,,,,,,,,,
154,L'enfance de l'art,Départementale,7281,74 chemin de la Cacharde,,https://www.ciezinzoline.org/,contact@ciezinzoline.org,De 2000 à 2009,2002,Spectacle vivant,Arts du cirque,,,,,Avant-saison (1er janvier - 20 juin),"44.9410716967, 4.82459034307",44.9410716967,4.82459034307,,,,,,,,,,,,,,,,
155,Les eauditives,Départementale,83012,185 Rue Des tanneurs,,,eblanco@plainepage.com,De 2000 à 2009,2008,"Livre, littérature",,,,,Poésie,Avant-saison (1er janvier - 20 juin),"43.5523879362, 5.98777049612",43.5523879362,5.98777049612,,,,,,,,,,,,,,,,
156,Les Planches,Départementale,66049,7 Boulevard Lafayette,Salle De L'union,"https://www.villarddelans-correnconenvercors.com/offres/festival-des-planches-villard-de-lans-fr-3479359/#:~:text=Le%20Festival%20des%20Planches%20est,est%20un%20atelier%20th%C3%A9%C3%A2tre...",omc66@orange.fr,De 2000 à 2009,2006,Spectacle vivant,Théâtre,,,,,Saison (21 juin - 5 septembre),"42.4739622057, 2.75268021455",42.4739622057,2.75268021455,,,,,,,,,,,,,,,,
157,Jardin électronique,Départementale,59350,306 rue des plantes,,https://www.jardinelectronique.com/,,2010 et après,2014,Musique,,,,,,Après-saison (6 septembre - 31 décembre),"50.6317183168, 3.04783272312",50.6317183168,3.04783272312,,,,,,,,,,,,,,,,
158,Lille Piano(s),Départementale,59350,30 Place Mendès France,,,espiers@on-lille.com,De 2000 à 2009,2004,Musique,,"Jazz, blues, Musique classique, Musique contemporaine, Musiques du monde, Musiques électroniques, techno, Musiques traditionnelles",,,,Saison (21 juin - 5 septembre),"50.6317183168, 3.04783272312",50.6317183168,3.04783272312,,,,,,,,,,,,,,,,
159,Les Promenades Musicales du Pays d'Auge,Départementale,14366,14 rue au Char,,https://www.pays-auge-culture.org/,administration@pays-auge-culture.org,De 1990 à 1999,1994,Musique,,Musique classique,,,,Saison (21 juin - 5 septembre),"49.1466628463, 0.238274840452",49.1466628463,0.238274840452,,,,,,,,,,,,,,,,
160,Propagations,Départementale,13055,12 Rue Simon,Friche de la belle de mai,,christian.sebille@gmem.org,De 1980 à 1989,1990,Musique,,Musique contemporaine,,,,Avant-saison (1er janvier - 20 juin),"43.296346, 5.369889",43.296346,5.369889,,,,,,,,,,,,,,,,
161,Festival des 3 Continents,Départementale,44109,18 Rue Scribe,,https://3continents.com,guillaume.descamps@3continents.com,Avant 1980,1979,"Cinéma, audiovisuel",,,"Documentaire, Fiction long métrage, Film d'animation",,,Après-saison (6 septembre - 31 décembre),"47.2316356767, -1.54831008605",47.2316356767,-1.54831008605,,,,,,,,,,,,,,,,
162,Festival des Maynats,Départementale,65370,40 Route De La Mongie,,http://maynats.org/?page_id=7,contact@maynats.org,De 1990 à 1999,1995,Spectacle vivant,,,,,,Avant-saison (1er janvier - 20 juin),"43.0809868459, 0.129487370632",43.0809868459,0.129487370632,,,,,,,,,,,,,,,,
163,Côté cour,Départementale,13001,,Centre ville et alentours - Plusieurs voies,https://www.festivalcotecour.fr,contact@tanghost.fr,2010 et après,2021,Musique,,Musique classique,,,,Saison (21 juin - 5 septembre),"43.5360708378, 5.39857444582",43.5360708378,5.39857444582,,,,,,,,,,,,,,,,
164,Festival d'un jour,Départementale,26058,33 Rue de Chony,La Cartoucherie,,contact@lequipee.com,De 1990 à 1999,1994,"Cinéma, audiovisuel",,,Film d'animation,,,Avant-saison (1er janvier - 20 juin),"44.9651094188, 4.89411636376",44.9651094188,4.89411636376,,,,,,,,,,,,,,,,
165,Rencontres littéraires en Savoie Mont-Blanc,Départementale,73065,59 Rue Du commndant Perceval,FACIM-Fondation pour l'action culturelle internationale en montagne,http://fondation-facim.fr/,,De 2000 à 2009,19ème,"Livre, littérature",,,,,Fiction,Avant-saison (1er janvier - 20 juin),"45.583182552, 5.90903392417",45.583182552,5.90903392417,,,,,,,,,,,,,,,,
166,Musicauna,Départementale,89257,,,,marie-therese.messiaen@yonne.fr,2010 et après,2019,Musique,,"Chanson ou variété française, Jazz, blues, Hip-hop, rap, slam, Métal, hard rock, Musique classique, Musique contemporaine, Musiques du monde, Musiques électroniques, techno, Musiques traditionnelles, Pop, rock",,,,Après-saison (6 septembre - 31 décembre),"47.9751844211, 3.53087221846",47.9751844211,3.53087221846,,,,,,,,,,,,,,,,
167,Voix romanes,Départementale,63453,Route romane d'Alsace,,https://www.voix-romane.com/,,2010 et après,,Musique,,,,,,Saison (21 juin - 5 septembre),"45.7750797019, 3.2843067169",45.7750797019,3.2843067169,,,,,,,,,,,,,,,,
168,Les contemporaines,Départementale,69266,8 place Lazare Goujon,,,en.actes.compagnie@gmail.com,2010 et après,2014,Spectacle vivant,Théâtre,,,,,Avant-saison (1er janvier - 20 juin),"45.7707704179, 4.88845817426",45.7707704179,4.88845817426,,,,,,,,,,,,,,,,
169,Contes d'Automne,Départementale,60057,22 rue Vinot Préfontaine,,https://mdo.oise.fr,francoise.randu@oise.fr,De 1990 à 1999,1999,Spectacle vivant,Conte,,,,,Après-saison (6 septembre - 31 décembre),"49.4365523321, 2.08616123661",49.4365523321,2.08616123661,,,,,,,,,,,,,,,,
170,Printemps du livre,Départementale,38185,11 Boulevard Jean Pain,Mairie,,,De 2000 à 2009,17ème,"Livre, littérature",,,,,Fiction,Avant-saison (1er janvier - 20 juin),"45.1821215167, 5.72133051752",45.1821215167,5.72133051752,,,,,,,,,,,,,,,,
171,Labeaume en musiques,Départementale,7115,571 Chemin de Faveirolle,,https://www.labeaume-festival.org/,lou-milena.fouquet@labeaume-festival.org,De 1990 à 1999,,Musique,,"Musique classique, Musiques traditionnelles",,,,Saison (21 juin - 5 septembre),"44.4680870605, 4.31105082566",44.4680870605,4.31105082566,,,,,,,,,,,,,,,,
172,Zikenstock,Départementale,59136,19 Boulevard Papin,Siège de l'organisation,,,De 2000 à 2009,2004,Musique,,"Chanson, variété française, Pop, Indie, Musique électronique, Rock, Jazz, Blues",,,,Avant-saison (1er janvier - 20 juin),"50.0920093814, 3.53922472873",50.0920093814,3.53922472873,,,,,,,,,,,,,,,,
173,Bach Festival Gers,Départementale,32256,13 Rue de l'évêché,"Association Les Amis Du Bach Festival Gers, Centre culturel",https://www.iKosik.com/Festival,bachfestivalgers@gmail.com,2010 et après,2017,Musique,,,,,,Saison (21 juin - 5 septembre),"43.5186713962, 0.410792361049",43.5186713962,0.410792361049,,,,,,,,,,,,,,,,
174,Les heures festives,Départementale,58170,,,,leslivreurs@leslivreurs.com,2010 et après,2017,Spectacle vivant,Théâtre,,,,,Saison (21 juin - 5 septembre),"47.3317643391, 3.66490728626",47.3317643391,3.66490728626,,,,,,,,,,,,,,,,
175,Hors limites,Départementale,93055,,,https://www.hors-limites.fr/,contact@bibliotheques93.fr,De 2000 à 2009,2009,"Livre, littérature",,,,,"Fiction (roman, théâtre, etc.), Non-fiction (documentaire, autobiographie, essai, récit, etc.), Polar, Science-fiction, Bande dessinée, comics, manga, Poésie",Avant-saison (1er janvier - 20 juin),"48.8983093876, 2.40872147475",48.8983093876,2.40872147475,,,,,,,,,,,,,,,,
176,Festival de théâtre,Départementale,66168,,théatre de verdure de saint andré,,tourisme.saint.andre@gmail.com,,,Spectacle vivant,Théâtre,,,,,Saison (21 juin - 5 septembre),"42.5524573215, 2.98000507261",42.5524573215,2.98000507261,,,,,,,,,,,,,,,,
177,Festival de musique baroque du Jura,Départementale,39478,10 Rue Mercière,,http://www.festival-musique-baroque-jura.com/,sf.dionnet@orange.fr,De 1980 à 1989,1985,Musique,,Musique classique,,,,Saison (21 juin - 5 septembre),"46.408600398, 5.87556247635",46.408600398,5.87556247635,,,,,,,,,,,,,,,,
178,Eure poétique et musicale,Départementale,27112,,,https://www.festivaleure.com/,,De 2000 à 2009,2008,Musique,,Musique classique,,,,Saison (21 juin - 5 septembre),"48.8525387012, 0.899890466074",48.8525387012,0.899890466074,,,,,,,,,,,,,,,,
179,Festival chansons natures et vins d'aqui,Départementale,66041,2 Rue des  Jaoumets,,https://www.facebook.com/ASSOLAPAGAIE/,assolapagaie@gmail.com,2010 et après,2018,Spectacle vivant,,,,,,Avant-saison (1er janvier - 20 juin),"42.7867407426, 2.77853627321",42.7867407426,2.77853627321,,,,,,,,,,,,,,,,
180,Chemin d'art,Départementale,15055,,Saint-Flour Communauté,,,2010 et après,12ème en 21,"Arts visuels, arts numériques",,,,Installation,,Saison (21 juin - 5 septembre),"45.0875492811, 3.10817742662",45.0875492811,3.10817742662,,,,,,,,,,,,,,,,
181,Festival de Pâques de Deauville,Départementale,14220,,,https://musiqueadeauville.com/,,De 1990 à 1999,1997,Musique,,Musique classique,,,,Avant-saison (1er janvier - 20 juin),"49.3543800887, 0.0744665786308",49.3543800887,0.0744665786308,,,,,,,,,,,,,,,,
182,"À pas contés, festival international jeune et tous publics",Départementale,21231,4 Passage Darcy,BP 42407,,accueil@abcdijon.org,De 2000 à 2009,2001,Spectacle vivant,,,,,,Avant-saison (1er janvier - 20 juin),"47.3229437965, 5.03788805877",47.3229437965,5.03788805877,,,,,,,,,,,,,,,,
183,Festival des Binbins,Départementale,59178,1 Place St-Amé,,https://www.festivaldesbinbins.fr,aquiquempois@ville-douai.fr,De 2000 à 2009,2007,"Arts visuels, arts numériques",,,,,,Saison (21 juin - 5 septembre),"50.3823195335, 3.09145683114",50.3823195335,3.09145683114,,,,,,,,,,,,,,,,
184,La Londe en classic,Départementale,83071,,,https://www.ville-lalondelesmaures.fr/culture-et-sport/agenda/la-londe-en-classic.html,,2010 et après,2016,Musique,,Musique classique,,,,Saison (21 juin - 5 septembre),"43.1689213414, 6.24285151023",43.1689213414,6.24285151023,,,,,,,,,,,,,,,,
185,Les Franches Conteries,Départementale,70310,29 Rue Albert Mathiez,Centre culturel François Mitterrand,https://franches-conteries70.blogspot.com,auditorium@mairie-lure.fr,De 2000 à 2009,2006,Spectacle vivant,Arts du conte,,,,,Saison (21 juin - 5 septembre),"47.6851664568, 6.49651910322",47.6851664568,6.49651910322,,,,,,,,,,,,,,,,
186,Jazz in Marciac,Départementale,32233,8 Place du Chevalier D'antras,,https://jazzinmarciac.com,info@jazzinmarciac.com,Avant 1980,1978,Musique,,musique du monde et jazz,,,,Saison (21 juin - 5 septembre),"43.521249291, 0.156300856185",43.521249291,0.156300856185,,,,,,,,,,,,,,,,
187,Jazz en Touraine,Départementale,37156,9 RUE DE LA CROIX BLANCHE,ESPLANADE MAURICE CULLAZ,https://jazzentouraine.com,jazzentouraine@wanadoo.fr,De 1980 à 1989,1987,Musique,,"Jazz, blues",,,,Après-saison (6 septembre - 31 décembre),"47.3824921367, 0.841267944196",47.3824921367,0.841267944196,,,,,,,,,,,,,,,,
188,Le chahut vert,Départementale,80630,16 bis Route d'Aumale,,https://www.lechahutvert.fr/,festival@cc2so.fr,2010 et après,2013,Spectacle vivant,"Arts du cirque, arts de la rue",,,,,Saison (21 juin - 5 septembre),"49.7485829077, 1.97952156568",49.7485829077,1.97952156568,,,,,,,,,,,,,,,,
189,Les 7 Collines,Départementale,42218,,Différents lieux : Salle Jean Dasté Place Jean Dasté 10 Boulevard Thiers Parking Syndicat des Roches et d'autres lieux,https://festivaldes7collines.com/,septcollines@hotmail.com,De 1990 à 1999,,Spectacle vivant,Arts du cirque,,,,,Saison (21 juin - 5 septembre),"45.4301235512, 4.37913997076",45.4301235512,4.37913997076,,,,,,,,,,,,,,,,
190,Festa los Bandas,Départementale,46309,Place pierre betz,,https://www.vallee-dordogne.com/offres/festa-los-bandas-souillac-fr-1810145,lescabecous@gmail.com,,,Musique,,Fanfare,,,,Saison (21 juin - 5 septembre),"44.9069531608, 1.46396482842",44.9069531608,1.46396482842,,,,,,,,,,,,,,,,
191,Festival International de Cinéma Asiatique de Tours,Départementale,37261,2 rue des Ursulines,,,filmasie@laposte.net,De 2000 à 2009,2000,"Cinéma, audiovisuel",,,"Court métrage, Documentaire, Fiction long métrage, Film d'animation",,,Avant-saison (1er janvier - 20 juin),"47.3986382281, 0.696526376417",47.3986382281,0.696526376417,,,,,,,,,,,,,,,,
192,Conte & Compagnies,Départementale,90010,53 Avenue Avenue d'Altkirch,,,justine.baudet@territoiredebelfort.fr,De 2000 à 2009,2000,"Livre, littérature",,,,,,Après-saison (6 septembre - 31 décembre),"47.6471539414, 6.84541206237",47.6471539414,6.84541206237,,,,,,,,,,,,,,,,
193,Festival de l'humour,Départementale,2B050,,,,,2010 et après,2018,Spectacle vivant,Humour,,,,,Saison (21 juin - 5 septembre),"42.5454874755, 8.7595487404",42.5454874755,8.7595487404,,,,,,,,,,,,,,,,
194,Oh Fun BAK,Départementale,60151,,Parc de la Brunerie (Mairie),http://www.ohfunbak.labak.fr/,contact@labak.fr,De 2000 à 2009,2008,Spectacle vivant,"Arts du cirque, arts de la rue","Fanfare, Cirque, Contes, Théâtre",,,,Saison (21 juin - 5 septembre),"49.442089833, 2.89567270285",49.442089833,2.89567270285,,,,,,,,,,,,,,,,
195,Music'en Brousse,Départementale,70292,,,https://music-en-brousse.fr,,De 1990 à 1999,1999,Musique,,"Pop, rock",,,,Saison (21 juin - 5 septembre),"47.8171454049, 5.88977076116",47.8171454049,5.88977076116,,,,,,,,,,,,,,,,
196,Festival Cantica Sacra À Rocamadour,Départementale,46240,Rue de La Mercerie,,https://www.rocamadourfestival.com,contact@rocamadourfestival.com,De 2000 à 2009,2006,Musique,,,,,,Saison (21 juin - 5 septembre),"44.8148525753, 1.62220346544",44.8148525753,1.62220346544,,,,,,,,,,,,,,,,
197,Festival des chapelles,Départementale,30355,Chemin Du Moulin De L'orme,,,festivaldeschapelles.gard@gmail.com,2010 et après,2018,Musique,,,,,,Saison (21 juin - 5 septembre),"44.0756512513, 4.61675819093",44.0756512513,4.61675819093,,,,,,,,,,,,,,,,
198,Festival 31 notes d'été,Départementale,31555,7 Rue Jules Chalande,,https://www.haute-garonne.fr/dossier/31-notes-dete,contact.dav@cd31.fr,De 1990 à 1999,1998,Pluridisciplinaire,,,,,,Saison (21 juin - 5 septembre),"43.5963814303, 1.43167293364",43.5963814303,1.43167293364,,,,,,,,,,,,,,,,
199,Hibernarock,Départementale,15187,12 Rue marie maurel,,https://www.hibernarock.fr/,hibernarock@cantal.fr,De 2000 à 2009,,Musique,,"Chanson ou variété française, jazz, blues, Hip-hop, rap, slam, Musiques du monde, Musiques électroniques, techno, Musiques traditionnelles, Pop, rock, Variétés internationales",,,,Avant-saison (1er janvier - 20 juin),"45.0278919825, 3.08320563232",45.0278919825,3.08320563232,,,,,,,,,,,,,,,,
200,Mai du livre,Départementale,65440,- Chemin Mauhourat,Haras De Tarbes,,ligue@fol65.fr,Avant 1980,1979,"Livre, littérature",,,,,,Avant-saison (1er janvier - 20 juin),"43.2347859635, 0.0660093937851",43.2347859635,0.0660093937851,,,,,,,,,,,,,,,,
201,Marseille jazz des cinq continents,Départementale,13055,15 Rue Beauvau,Musée cantini - jardins du palais longchamp - cour du centre de la vieille charité - théâtre silvain,https://www@marseillejazz.com,hkieffer@marseillejazz.com,De 2000 à 2009,2000,Musique,,"Jazz, blues, musiques du monde",,,,Saison (21 juin - 5 septembre),"43.296346, 5.369889",43.296346,5.369889,,,,,,,,,,,,,,,,
202,Festival des correspondances des arts,Départementale,2110,30 Place Charles de Gaulle,,https://braine.fr/,correspondance-des-arts@braine.fr,2010 et après,2018,Pluridisciplinaire,,,,,,Après-saison (6 septembre - 31 décembre),"49.3484719318, 3.53596629744",49.3484719318,3.53596629744,,,,,,,,,,,,,,,,
203,Cinealma,Départementale,6033,5 bis Boulevard De la colle belle,Salle juliette gréco,http://cinealma.fr/,contacts@cineactions.com,De 2000 à 2009,2007,"Cinéma, audiovisuel",,,Fiction long métrage,,,Après-saison (6 septembre - 31 décembre),"43.7850390592, 7.18414159904",43.7850390592,7.18414159904,,,,,,,,,,,,,,,,
204,Jazz au sommet,Départementale,42224,3 Rue DU FEUILLAGE,,https://WWW.JAZZAUSOMMET.COM,dani.cormierbrunon@gmail.com,De 2000 à 2009,2007,Musique,,"jazz, blues",,,,Après-saison (6 septembre - 31 décembre),"45.3472458116, 4.43132626452",45.3472458116,4.43132626452,,,,,,,,,,,,,,,,
205,Jazz sous les bigaradiers,Départementale,6065,16 Rue Gabriel ponzone,,,alex.benvenuto@wanadoo.fr,De 1990 à 1999,1996,Musique,,"Jazz, blues",,,,Après-saison (6 septembre - 31 décembre),"43.721423765, 7.16039926444",43.721423765,7.16039926444,,,,,,,,,,,,,,,,
206,Sculpt'enSologne - Biennale d'art contemporain,Départementale,41046,,,https://www.sculptensologne.com/,,De 2000 à 2009,2007,"Arts visuels, arts numériques",,,,"Sculptures, Street art",,Après-saison (6 septembre - 31 décembre),"47.6135106337, 1.92322250059",47.6135106337,1.92322250059,,,,,,,,,,,,,,,,
207,Festival national de théâtre amateur,Départementale,13055,4 Rue Du théâtre français,,https://fnctacd13.wordpress.com/,fnctacd13@gmail.com,De 1990 à 1999,1999,Spectacle vivant,,,,,,Avant-saison (1er janvier - 20 juin),"43.296346, 5.369889",43.296346,5.369889,,,,,,,,,,,,,,,,
208,Babel minots,Départementale,13055,11 Boulevard Boulevard briançon,,https://www.babelminots.com,julien@lenomad.com,2010 et après,2015,Musique,,"Chanson ou variété française, jazz, blues, hip-hop, rap, slam, métal, hard rock, musique classique, musiques du monde, musiques électroniques, techno, musiques traditionnelles, pop, rock, rnb, variétés internationales, jeune public",,,,Avant-saison (1er janvier - 20 juin),"43.296346, 5.369889",43.296346,5.369889,,,,,,,,,,,,,,,,
209,Bebop,Départementale,72181,1 Avenue Centre des Expositions,1 avenue du Centre des Expositions,https://www.bebop-festival.com,bruno@bebop-festival.com,De 1980 à 1989,1987,Musique,,"Chanson ou variété française, Hip-hop, rap, slam, Métal, hard rock, Musiques du monde, Musiques électroniques, techno, Pop, rock, RnB",,,,Après-saison (6 septembre - 31 décembre),"47.9885256718, 0.200030493539",47.9885256718,0.200030493539,,,,,,,,,,,,,,,,
210,Jazz à porquerolles,Départementale,83069,1 Chemin Sainte-agathe,Fort sainte-agathe,,lilly.jazzaporquerolles@gmail.com,De 2000 à 2009,2001,Musique,,"Jazz, blues, musiques du monde",,,,Saison (21 juin - 5 septembre),"43.1018713534, 6.18898508469",43.1018713534,6.18898508469,,,,,,,,,,,,,,,,
211,Les Estivals du canal de Vierzon,Départementale,18279,4 rue Nicolas Boileau,Jardin de l'abbye,,,de 2000 à 2009,2008,Musique,,"Rock, Chanson française, reggae",,,,Saison (21 juin - 5 septembre),"47.2368836077, 2.0790757049",47.2368836077,2.0790757049,,,,,,,,,,,,,,,,
212,Rade side,Départementale,83137,1 Rue Racine,,https://www.radeside.com/,directionadjointe@tandem83.com,2010 et après,2015,Musique,,"Musiques électroniques, techno, pop, rock",,,,Après-saison (6 septembre - 31 décembre),"43.1361589728, 5.93239634249",43.1361589728,5.93239634249,,,,,,,,,,,,,,,,
213,Rencontres internationales sciences & cinémas - RISC,Départementale,13055,26 Boulevard Des dames,,http://pollymaggoo.org/,serge.dentin@pollymaggoo.org,De 2000 à 2009,2006,"Cinéma, audiovisuel",,,"Court métrage, documentaire, fiction long métrage, film d'animation, expérimental, film d'artiste.",,,Avant-saison (1er janvier - 20 juin),"43.296346, 5.369889",43.296346,5.369889,,,,,,,,,,,,,,,,
214,Jazz à Toulon,Départementale,83137,,,https://www.jazzatoulon.com/,,De 1990 à 1999,1990,Musique,,Jazz,,,,Saison (21 juin - 5 septembre),"43.1361589728, 5.93239634249",43.1361589728,5.93239634249,,,,,,,,,,,,,,,,
215,Jours de danse(s),Départementale,15014,12 Rue Marie Maurel,,https://culture.cantal.fr,cchezeau@cantal.fr,2010 et après,2015,Spectacle vivant,Théâtre,,,,,Avant-saison (1er janvier - 20 juin),"44.9245233686, 2.44162453828",44.9245233686,2.44162453828,,,,,,,,,,,,,,,,
216,Las Rapatonadas,Départementale,15014,1 Rue Jean Moulin,32 CITE CLAIR VIVRE,https://ieo-cantal.com,contact@ieo-cantal.com,Avant 1980,1981,"Livre, littérature",,,,,Conte,Après-saison (6 septembre - 31 décembre),"44.9245233686, 2.44162453828",44.9245233686,2.44162453828,,,,,,,,,,,,,,,,
217,Les Egaluantes,Départementale,50099,19 rue Holgate,,https://www.lesegaluantes.com/,pom@azzurri.fr,2010 et après,2016,"Cinéma, audiovisuel",,,"Court métrage, Documentaire, Fiction long métrage, Film d'animation",,,Après-saison (6 septembre - 31 décembre),"49.2963250601, -1.2559215726",49.2963250601,-1.2559215726,,,,,,,,,,,,,,,,
218,Patrimoine vivant,Départementale,2168,Cours Renan,Château médiéval,https://patrimoinevivant.org/,,De 1990 à 1999,1995,Pluridisciplinaire,,,,,,Saison (21 juin - 5 septembre),"49.0564070801, 3.38160004843",49.0564070801,3.38160004843,,,,,,,,,,,,,,,,
219,L'été photographique de Lectoure,Départementale,32208,8 Cours Gambetta,Maison de Saint-Louis,http://centre-photo-lectoure.fr/festival/,info@centre-photo-lectoure.fr,De 1990 à 1999,1990,"Arts visuels, arts numériques",,,,,,Saison (21 juin - 5 septembre),"43.9405030561, 0.650762392132",43.9405030561,0.650762392132,,,,,,,,,,,,,,,,
220,Musique en cité(s),Départementale,13055,22 Rue Fortia,,,agnes.pyka@desequilibres.fr,De 2000 à 2009,2006,Musique,,"Musique classique, musique contemporaine",,,,Après-saison (6 septembre - 31 décembre),"43.296346, 5.369889",43.296346,5.369889,,,,,,,,,,,,,,,,
221,Les musicales du Luberon,Départementale,84073,54 Rue Kléber guendon,,https://musicalesluberon.fr,musicalesluberon@wanadoo.fr,De 1980 à 1989,1989,Musique,,Musique classique,,,,Saison (21 juin - 5 septembre),"43.8243710342, 5.22087170856",43.8243710342,5.22087170856,,,,,,,,,,,,,,,,
222,Les arts jaillissants,Départementale,73175,,Eglise saint Barthélemy de Montsapey,https://www.les-arts-jaillissants.fr,contact@les-arts-jaillissants.fr,De 1990 à 1999,1992,Musique,,"Musique classique, Musique contemporaine, Musiques du monde",,,,Saison (21 juin - 5 septembre),"45.5314889919, 6.36669427224",45.5314889919,6.36669427224,,,,,,,,,,,,,,,,
223,Printemps des Poètes,Départementale,72225,15 Rue Des Champs Roux,,https://www.facebook.com/festivals.payshautesarthe,adm.arrosoir@gmail.com,2010 et après,2017,"Livre, littérature",,,,,Poésie,Avant-saison (1er janvier - 20 juin),"48.3488422257, 0.0741365485752",48.3488422257,0.0741365485752,,,,,,,,,,,,,,,,
224,Par Has’ART !,Départementale,77373,,,,,,,Spectacle vivant,Arts de la rue,,,,,Saison (21 juin - 5 septembre),"48.7871411658, 2.61407436985",48.7871411658,2.61407436985,,,,,,,,,,,,,,,,
225,Musique aux 4 horizons,Départementale,70451,13 Rue de la Chapelle,Colline Notre-Dame du Haut,https://musiqueaux4horizons.com,musiqueaux4horizons@gmail.com,2010 et après,2013,Musique,,Musique classique,,,,Saison (21 juin - 5 septembre),"47.7159736796, 6.63465984032",47.7159736796,6.63465984032,,,,,,,,,,,,,,,,
226,Estival Saint-Riquier,Départementale,80716,Place de l'Eglise,,https://www.abbaye-saint-riquier.fr/,abbayesaintriquier@somme.fr,De 1980 à 1989,1984,Musique,,Musiques classiques,,,,Saison (21 juin - 5 septembre),"50.1279792191, 1.94290239471",50.1279792191,1.94290239471,,,,,,,,,,,,,,,,
227,Festival du film court,Départementale,69266,117 Cours Emile Zola,,,direction.festivals@lezola.com,De 1980 à 1989,,"Cinéma, audiovisuel",,,"Court métrage, Documentaire, film d'animation, expérimental, VR, clip",,,Après-saison (6 septembre - 31 décembre),"45.7707704179, 4.88845817426",45.7707704179,4.88845817426,,,,,,,,,,,,,,,,
228,Festival Poésie et davantage,Départementale,61001,,,https://www.salondulivrealencon.fr/,,2010 et après,2018,"Livre, littérature",,,,,Poésie,Après-saison (6 septembre - 31 décembre),"48.4318193082, 0.0915406916107",48.4318193082,0.0915406916107,,,,,,,,,,,,,,,,
229,Silliusfest,Départementale,71014,2 Rue Henri Dunant,,,,2010 et après,2017,Musique,,,,,,Saison (21 juin - 5 septembre),"46.945536773, 4.31060069532",46.945536773,4.31060069532,,,,,,,,,,,,,,,,
230,L'Offrande Musicale,Départementale,65062,2 Rue des Pyrénées,,https://loffrandemusicale.fr,contact@loffrandemusicale.fr,2010 et après,2021,Musique,,,,,,Saison (21 juin - 5 septembre),"43.201851966, 0.129955186604",43.201851966,0.129955186604,,,,,,,,,,,,,,,,
231,Conte et compagnies,Départementale,90010,53 Avenue d'Altkirch,Médiathèque départementale,,virginie.grieder@territoiredebelfort.fr,De 2000 à 2009,1999,"Livre, littérature",,,,,,Après-saison (6 septembre - 31 décembre),"47.6471539414, 6.84541206237",47.6471539414,6.84541206237,,,,,,,,,,,,,,,,
232,Le mois du film documentaire,Départementale,90010,53 Avenue Avenue d'Altkirch,,,justine.baudet@territoiredebelfort.fr,De 2000 à 2009,2000,"Cinéma, audiovisuel",,,Documentaire,,,Après-saison (6 septembre - 31 décembre),"47.6471539414, 6.84541206237",47.6471539414,6.84541206237,,,,,,,,,,,,,,,,
233,Festival de piaono à colliure,Départementale,66026,,"Différents lieux :  Eglise Notre-Dame des Anges,  le Centre Culturel,  les Cours du Château Royal, le Temple Protestant",https://alainmarinaro.fr/actualites/pourquoi-ce-concours-a-collioure-2/,jean-yves.marinaro@orange.fr / francinelibot@orange.fr,,,Musique,,Musique,,,,Saison (21 juin - 5 septembre),"42.5745922327, 2.89542921407",42.5745922327,2.89542921407,,,,,,,,,,,,,,,,
234,Popoppidum festival,Départementale,39097,,,http://www.popoppidum.com,popoppidum@orange.fr,2010 et après,2010,Musique,,,,,,Avant-saison (1er janvier - 20 juin),"46.7445389751, 5.8988102947",46.7445389751,5.8988102947,,,,,,,,,,,,,,,,
235,La Reverdie,Départementale,89113,Place de la Mairie,,,ensemble.obsidienne@orange.fr,2010 et après,2019,Musique,,Musique classique,,,,Avant-saison (1er janvier - 20 juin),"48.153962733, 3.22037217648",48.153962733,3.22037217648,,,,,,,,,,,,,,,,
236,Festival de cinéma Du grain à démoudre,Départementale,76305,29 route de Saint-Laurent,,https://www.dugrainademoudre.net,info@dugrainademoudre.net,De 2000 à 2009,2000,"Cinéma, audiovisuel",,,"Court métrage, Documentaire, Fiction long métrage, Film d'animation, ciné concerts",,,Après-saison (6 septembre - 31 décembre),"49.4860837457, 0.221985693724",49.4860837457,0.221985693724,,,,,,,,,,,,,,,,
237,Les arts du récit,Départementale,38185,182 Cours Berriat,,http://www.artsdurecit.com/,stephenejourdain@artsdurecit.com,De 1980 à 1989,1987,"Livre, littérature",,,,,Conte,Avant-saison (1er janvier - 20 juin),"45.1821215167, 5.72133051752",45.1821215167,5.72133051752,,,,,,,,,,,,,,,,
238,Vertical'été,Départementale,5082,23 Rue Cabrié,Association ascen-danse,http://verticalete.free.fr,asso.ascendanse05@gmail.com,De 2000 à 2009,2006,Spectacle vivant,Danse,,,,,Saison (21 juin - 5 septembre),"44.6690562408, 6.62465091015",44.6690562408,6.62465091015,,,,,,,,,,,,,,,,
239,Trajectoires,Départementale,44109,23 Rue Noire,,https://festival-trajectoires.com,a.tehami@ccnn.fr,2010 et après,2018,Spectacle vivant,Danse,,"Court métrage, Documentaire, Fiction long métrage, Film d'animation",,,Avant-saison (1er janvier - 20 juin),"47.2316356767, -1.54831008605",47.2316356767,-1.54831008605,,,,,,,,,,,,,,,,
240,Rencontres littéraires de Nogaro,Départementale,32296,3 Place Place des Arènes,,https://rencontres-litteraires-nogaro.fr,eric.busson@orange.fr,De 2000 à 2009,2005,"Livre, littérature",,,,,,Avant-saison (1er janvier - 20 juin),"43.7612028008, -0.0306381303587",43.7612028008,-0.0306381303587,,,,,,,,,,,,,,,,
241,Balla boum,Départementale,2B205,,,http://ballaboum.com,,2010 et après,2015,Musique,,Musiques électroniques,,,,Saison (21 juin - 5 septembre),"42.7066867042, 9.3670488048",42.7066867042,9.3670488048,,,,,,,,,,,,,,,,
242,Festival Automne musical en Vallespir,Départementale,66148,14 Rue Pierre Rameil,,https://www.vallespir-tourisme.fr/en/agenda-en/main-events/le-festival-automne-musical-en-vallespir-the-musical-autumn-in-vallespir-festival/,gilbert.guerne0921@orange.fr / fcpc.ceret@gmail.com,,,Musique,,,,,,Après-saison (6 septembre - 31 décembre),"42.5025817829, 3.10455891207",42.5025817829,3.10455891207,,,,,,,,,,,,,,,,
243,Regards sur la Palestine,Départementale,76540,28 rue de la République,,,cara.robert@wanadoo.fr,2010 et après,2011,"Cinéma, audiovisuel",,,"Court métrage, Documentaire, Fiction long métrage, Film d'animation",,,Après-saison (6 septembre - 31 décembre),"49.4413460103, 1.09256784278",49.4413460103,1.09256784278,,,,,,,,,,,,,,,,
244,Festival de Saint-Céré,Départementale,46251,18 Avenue Docteur Roux,,https://www.scenograph.fr,public@scenograph.fr,Avant 1980,1960,Spectacle vivant,Opéra,,,,,Saison (21 juin - 5 septembre),"44.8531827667, 1.89258045388",44.8531827667,1.89258045388,,,,,,,,,,,,,,,,
245,Festival de théâtre de Saint-Valery-sur-Somme,Départementale,80721,19 Place Saint Martin,,http://www.festival-saint-valery.fr/,contact@festival-saint-valery.fr,De 2000 à 2009,2008,Spectacle vivant,Théâtre,,,,,Saison (21 juin - 5 septembre),"50.1761767829, 1.62262280183",50.1761767829,1.62262280183,,,,,,,,,,,,,,,,
246,Festival du cinéma belge en garrigue,Départementale,30334,5 Place du Duché,Tertulia Production,https://festivalcinemabelge.fr,tertuliaproduction@gmail.com,2010 et après,2011,"Cinéma, audiovisuel",,,"Court métrage, Documentaire, Fiction long métrage, Film d'animation",,,Saison (21 juin - 5 septembre),"44.0136590402, 4.41600031556",44.0136590402,4.41600031556,,,,,,,,,,,,,,,,
247,Au Gray des mots,Départementale,70026,12 bis Rue Louis Chauveau,Espace Festi'Val,https://gray.fr,mairie@ville-gray.fr,2010 et après,2015,"Livre, littérature",,,,,"Bande-dessinée, comics, manga",Après-saison (6 septembre - 31 décembre),"47.4628603881, 5.58172003346",47.4628603881,5.58172003346,,,,,,,,,,,,,,,,
248,Nuits musicales en Armagnac,Départementale,32208,1 Place Général de Gaulle,,https://Www.nma32.com,info@nma32.com,Avant 1980,1968,Musique,,,,,,Saison (21 juin - 5 septembre),"43.9405030561, 0.650762392132",43.9405030561,0.650762392132,,,,,,,,,,,,,,,,
249,Chemins de traverses,Départementale,93051,,,https://www.tourisme93.com/document.php?pagendx=815&engine_zoom=FMAIDFC930028175,assoeurekart@gmail.com,2010 et après,2021,Spectacle vivant,"Danse, théâtre, cirque, théâtre forain, toutes les disciplines du spectacle vivant",,,,,Après-saison (6 septembre - 31 décembre),"48.8361825401, 2.56443736814",48.8361825401,2.56443736814,,,,,,,,,,,,,,,,
250,Festival de l'Ours,Départementale,70414,10 bis Quartier de Saint-Antoine,Scierie Saint-Antoine,,,2010 et après,2013,Musique,,"Pop, rock",,,,Saison (21 juin - 5 septembre),"47.7857364865, 6.77321577931",47.7857364865,6.77321577931,,,,,,,,,,,,,,,,
251,Musique ancienne en Pic-Saint-Loup & gorges de l'Hérault,Départementale,34266,,Différents lieux :  Château d'Assas Les Ombres  Église romane Saint-Martin-de-Pourols  Église romane Saint-Nazaire-et-Saint-Celse  Église baroque Notre-Dame-de-l’Assomption Église Saint-Gilles Les Passions Église romane Saint-Jean Mora Vocis  Grand temple Ensemble Arianna  Chapelle-caveau de Montlobre,https://www.musiqueancienneenpicsaintloup.com/,lesmusesendialogue@orange.fr,2010 et après,2014,Musique,,Musique anciennes,,,,Après-saison (6 septembre - 31 décembre),"43.7516512162, 3.83370653974",43.7516512162,3.83370653974,,,,,,,,,,,,,,,,
252,Raconte bébés,Départementale,41018,,,,dlp.contact@departement41.fr,2010 et après,2016,"Livre, littérature",,,,,"Fiction (roman, théâtre, etc.), Littérature jeunesse - petite enfance",Avant-saison (1er janvier - 20 juin),"47.5817013938, 1.30625551583",47.5817013938,1.30625551583,,,,,,,,,,,,,,,,
253,Festival Le Loup Vert,Départementale,76436,,,https://www.facebook.com/festivalleloupvert/,,2010 et après,2016,Musique,,Musiques actuelles,,,,Après-saison (6 septembre - 31 décembre),"49.414321158, 0.855001409991",49.414321158,0.855001409991,,,,,,,,,,,,,,,,
254,Expolaroïd,Départementale,58145,11 Rue du Pont National,Galerie l’oeil à facettes,,,2010 et après,2017,"Arts visuels, arts numériques",,,,Photographie,,Avant-saison (1er janvier - 20 juin),"47.2894645643, 3.82491613793",47.2894645643,3.82491613793,,,,,,,,,,,,,,,,
255,Quinzaine Photographique Nantaise,Départementale,44109,1 Rue de Chateaubriand,,https://www.festival-qpn.com/,herve.marchand1@gmail.com,De 1990 à 1999,1997,"Arts visuels, arts numériques",,,,Photographie,,Après-saison (6 septembre - 31 décembre),"47.2316356767, -1.54831008605",47.2316356767,-1.54831008605,,,,,,,,,,,,,,,,
256,La Corde Raide,Départementale,44129,Rue du Port du Four,,https://www.festival-lacorderaide.fr,pontdzic.officiel@gmail.com,2010 et après,2017,Musique,,"Musiques du monde, Pop, rock",,,,Avant-saison (1er janvier - 20 juin),"47.433636363, -2.09556089039",47.433636363,-2.09556089039,,,,,,,,,,,,,,,,
257,Musique cordiale,Départementale,83124,217 Chemin Des moulins,Pippa pawlik,https://www.musique-cordiale.com,pippa@musique-cordiale.com,De 2000 à 2009,2005,Musique,,"Jazz, blues, musique classique, opéra, variétés internationales",,,,Saison (21 juin - 5 septembre),"43.6466457482, 6.61301408536",43.6466457482,6.61301408536,,,,,,,,,,,,,,,,
258,Fête du livre jeunesse de Villeurbanne,Départementale,69266,2 Place du Doc Lazare Goujon,Mairie,,,De 1990 à 1999,1998,"Livre, littérature",,,,,Fiction,Avant-saison (1er janvier - 20 juin),"45.7707704179, 4.88845817426",45.7707704179,4.88845817426,,,,,,,,,,,,,,,,
259,Nuits romantiques,Départementale,73008,5 Rue Jean Monnard,Centre des Congrès,https://www.nuitsromantiques.com,contact@nuitsromantiques.com,De 1990 à 1999,1996,Musique,,Musique classique,,,,Après-saison (6 septembre - 31 décembre),"45.6978541675, 5.90388626955",45.6978541675,5.90388626955,,,,,,,,,,,,,,,,
260,Festival du court métrage d'Auch,Départementale,32013,Allée Des Arts,ciné 32,https://festivalcourtauch.com/,contact@festivalcourtauch.com,2010 et après,2011,"Cinéma, audiovisuel",,,Court métrage,,,Avant-saison (1er janvier - 20 juin),"43.6534300414, 0.575190250459",43.6534300414,0.575190250459,,,,,,,,,,,,,,,,
261,Biennale,Départementale,66028,Place des Droits de L'homme,,https://theatre-cite.com/la-biennale/,,de 1980 à 1989,1986,Spectacle vivant,,,,Peinture,,Après-saison (6 septembre - 31 décembre),"42.6790392044, 2.94628633406",42.6790392044,2.94628633406,,,,,,,,,,,,,,,,
262,Festival du premier roman de Chambéry,Départementale,73065,77 place Métropole,,https://www.festivalpremierroman.com,communication@festivalpremierroman.com,De 1980 à 1989,1986,"Livre, littérature",,,,,"Fiction (roman, théâtre, etc.)",Avant-saison (1er janvier - 20 juin),"45.583182552, 5.90903392417",45.583182552,5.90903392417,,,,,,,,,,,,,,,,
263,Kultur'Mix,Départementale,21231,,,https://www.facebook.com/KulturMixfestival/,,2010 et après,2013,Pluridisciplinaire,Arts de la rue,"Musiques électroniques, techno, Hip-hop, rap, slam",,,,Saison (21 juin - 5 septembre),"47.3229437965, 5.03788805877",47.3229437965,5.03788805877,,,,,,,,,,,,,,,,
264,Art & Patrimoine,Départementale,70311,10 Place de la Baille,,https://www.festival-art-luxeuil.com,artdanslarue70300@gmail.com,De 1980 à 1989,1986,Spectacle vivant,,,,,,Saison (21 juin - 5 septembre),"47.823919724, 6.36363973342",47.823919724,6.36363973342,,,,,,,,,,,,,,,,
265,Saoû chante Mozart,Départementale,26336,Place de l'église,,,jean.delescluse@mozart-festival.fr,De 1980 à 1989,1989,Musique,,Musique classique,,,,Saison (21 juin - 5 septembre),"44.6470256973, 5.11072905542",44.6470256973,5.11072905542,,,,,,,,,,,,,,,,
266,Musique en Dévoluy,Départementale,5139,,Mairie,,ot@ledevoluy.com,De 1980 à 1989,1987,Musique,,Gospel/spiritual , musique baroque , musiques traditionnelles,,,,Saison (21 juin - 5 septembre),"44.6775419763, 5.94047368781",44.6775419763,5.94047368781,,,,,,,,,,,,,,
267,La Guerre Du Son,Départementale,25325,50 Rue grande,,,,De 2000 à 2009,2002,Musique,,,,,,Saison (21 juin - 5 septembre),"47.2603830516, 6.48915118252",47.2603830516,6.48915118252,,,,,,,,,,,,,,,,
268,Salon du livre jeunesse,Départementale,13097,Rue Des écoles,Service municipal venelles culture,,s.grimault@venelles.fr,De 2000 à 2009,2006,"Livre, littérature",,,,,"Bande dessinée, comics, manga, fiction (roman, théâtre, etc.), Littérature exclusivement jeunesse",Avant-saison (1er janvier - 20 juin),"43.6119214615, 4.85701475567",43.6119214615,4.85701475567,,,,,,,,,,,,,,,,
269,Festival Les Nits d’Eus,Départementale,66074,,Différents lieux : concert au lac de Vinça  La Maison du temps libre à Eus itinérant plusieurs lieux et communes Le Final au Domaine de la Rectorie,,lesnitsdeus.adm@gmail.com,Avant 1980,,Musique,,"jazz-rock, chansons hispaniques et catalanes",,,,Saison (21 juin - 5 septembre),"42.657654474, 2.44661138862",42.657654474,2.44661138862,,,,,,,,,,,,,,,,
270,Bleue,Départementale,13055,61 Avenue La canebière,,https://www.bleue-festival.org,anne.guiot@karwan.fr,2010 et après,2021,"Cinéma, audiovisuel",,,"Cinéma, sciences, arts de la rue et cirque, sports",,,Après-saison (6 septembre - 31 décembre),"43.296346, 5.369889",43.296346,5.369889,,,,,,,,,,,,,,,,
271,Les Rues'cambolesques,Départementale,81065,,,,theatre@ville-castres.fr,De 2000 à 2009,2002,Musique,,,,,,Saison (21 juin - 5 septembre),"43.6156511237, 2.23787231587",43.6156511237,2.23787231587,,,,,,,,,,,,,,,,
272,Détours du monde,Départementale,48039,,Espace Social & Collectif  Adresse administrative : Association Détours du Monde Place de la Bascule – 48230 CHANAC,https://detoursdumonde.org/,detoursdumonde@gmail.com,De 2000 à 2009,2004,Musique,,,,,,Saison (21 juin - 5 septembre),"44.4502200567, 3.34457977647",44.4502200567,3.34457977647,,,,,,,,,,,,,,,,
273,Festival de jazz,Départementale,66053,3 Rue de La République,,,contact@collioure.fr,,,Musique,,,,,,Saison (21 juin - 5 septembre),"42.5130107325, 3.07254121467",42.5130107325,3.07254121467,,,,,,,,,,,,,,,,
274,Musiques en Haut//Estivales des Orgues,Départementale,39368,114 Place jean jaurès,,,orgueshautjura@gmail.com,De 1990 à 1999,1997,Musique,,"Jazz, blues, Musique classique, Pop, rock",,,,Saison (21 juin - 5 septembre),"46.5258425381, 6.03328656487",46.5258425381,6.03328656487,,,,,,,,,,,,,,,,
275,Festival des Anches d'Azur,Départementale,83048,,,http://www.cote.azur.fr/actualites/info_festivals_musique-classique_15089.htm,,de 1990 à 1999,1997,Musique,,Musique classique,,,,Saison (21 juin - 5 septembre),"43.1951890718, 6.5862813598",43.1951890718,6.5862813598,,,,,,,,,,,,,,,,
276,Les arts verts,Départementale,13042,Route De saint-pons,,https://www.mairie-gemenos.fr/,sgomez@mairie-gemeno.fr,Avant 1980,2003,Musique,,Chanson ou variété française,,,,Saison (21 juin - 5 septembre),"43.2981044185, 5.64391464048",43.2981044185,5.64391464048,,,,,,,,,,,,,,,,
277,Festival de musique de chambre,Départementale,71270,,Prieuré,,,De 2000 à 2009,2007,Musique,,Musique classique,,,,Saison (21 juin - 5 septembre),"46.3205511756, 4.81842529639",46.3205511756,4.81842529639,,,,,,,,,,,,,,,,
278,Les Voix de Noël,Départementale,85162,1 Allée du Cloître,Abbayes Nieul-sur-l'Autise,https://www.sitesculturels.vendee.fr,abbayes-sudvendee@vendee.fr,de 2000 à 2009,2003,Musique,,Chœurs d'enfants,,,,Après-saison (6 septembre - 31 décembre),"46.424726987, -0.665995249042",46.424726987,-0.665995249042,,,,,,,,,,,,,,,,
279,Printemps musical en Pays Roannais,Départementale,42199,Place de la Mairie,,https://www.printempsmusical.com,jpgilfaut@gmail.com,De 1980 à 1989,1989,Musique,,"Chanson ou variété française, Musique classique, Musiques du monde, Musiques traditionnelles, Opéra, orchestres d'harmonie",,,,Avant-saison (1er janvier - 20 juin),"46.0272361831, 3.93483213636",46.0272361831,3.93483213636,,,,,,,,,,,,,,,,
280,Danse de tous les sens,Départementale,14258,8 Rue Saint Jean,,https://chorege-cdcn.com,info@chorege-cdcn.com,De 2000 à 2009,2003,Spectacle vivant,Danse,,,,,Avant-saison (1er janvier - 20 juin),"48.8957800281, -0.193401711782",48.8957800281,-0.193401711782,,,,,,,,,,,,,,,,
281,Festival de Théâtre de Terre Neuve,Départementale,85092,1 Rue Jarnigande,Château de Terre Neuve,https://www.vendee.fr,,De 2000 à 2009,2003,Spectacle vivant,Théâtre,,,,,Saison (21 juin - 5 septembre),"46.4563186117, -0.793449510859",46.4563186117,-0.793449510859,,,,,,,,,,,,,,,,
282,Hainaut Belles bretelles,Départementale,59301,31 Rue du Rieu de Condé,Club Léo Lagrange,http://www.bellesbretelles.com/contact/,,2010 et après,2017,Musique,,,,,,Saison (21 juin - 5 septembre),"50.4809811628, 3.53133874107",50.4809811628,3.53133874107,,,,,,,,,,,,,,,,
283,Printemps du Jazz,Départementale,77337,,,http://printempsdujazz.free.fr/,printempsdujazz@free.fr,De 1990 à 1999,1999,Musique,,"Jazz, blues",,,,Avant-saison (1er janvier - 20 juin),"48.8460926469, 2.61997100426",48.8460926469,2.61997100426,,,,,,,,,,,,,,,,
284,Salon du jeune lecteur Livres complices du Pays de Montbéliard,Départementale,25580,Rue des Carrières,,https://www.adec-paysdemontbeliard.fr,adec.livrescomplices@gmail.com,De 1980 à 1989,,"Livre, littérature",,,,,Littérature jeunesse,Après-saison (6 septembre - 31 décembre),"47.4647367767, 6.82570788244",47.4647367767,6.82570788244,,,,,,,,,,,,,,,,
285,L'Agit'al Sol,Départementale,11426,Chemin De Saint-Anne,,http://musicalsol.fr/,infos@musicalsol.fr,2010 et après,2014,Musique,,"Métal, hard rock, Pop, rock, Ska",,,,Avant-saison (1er janvier - 20 juin),"43.2930208254, 2.43699100253",43.2930208254,2.43699100253,,,,,,,,,,,,,,,,
286,Le Murmure du monde,Départementale,65029,Route Du Val D'azun,,https://lemurmuredumonde.com/,bonjour@lemurmuredumonde.com,2010 et après,2021,"Livre, littérature",,,,,,Avant-saison (1er janvier - 20 juin),"42.9675038855, -0.143830716437",42.9675038855,-0.143830716437,,,,,,,,,,,,,,,,
287,Festival L'Oreille perchée,Départementale,14011,24 rue de la Croix des Landes,Le DOC,http://www.le-doc.fr/festival_type/loreille-perche/,,2010 et après,2019,Musique,,Musiques expérimentales,,,,Avant-saison (1er janvier - 20 juin),"49.1129887811, -0.690829418472",49.1129887811,-0.690829418472,,,,,,,,,,,,,,,,
288,"Expose tes idées, filme et projette",Départementale,60057,17 Rue du Pré Martinet,Espace Pré Martinet,http://courtmetragefrancasdejeps.magix.net/,jdeprecq.francas@orange.fr,2010 et après,2014,"Cinéma, audiovisuel",,,Court métrage,,,Avant-saison (1er janvier - 20 juin),"49.4365523321, 2.08616123661",49.4365523321,2.08616123661,,,,,,,,,,,,,,,,
289,Musique ancienne de Callas,Départementale,83028,,,https://30-eme-festival-de-musique-ancienne-de-callas.webnode.fr/,callastourisme@dracenie.com,De 1990 à 1999,,Musique,,,Musique classique,,,Saison (21 juin - 5 septembre),"43.5655288351, 6.57328931995",43.5655288351,6.57328931995,,,,,,,,,,,,,,,,
290,Festival de la bande dessinée de Chambéry,Départementale,73065,67 Rue St François de Sales,Association Chambéry bande dessinée,http://chamberybd.fr,,Avant 1980,43ème,"Livre, littérature",,,,,Bande dessinée,Après-saison (6 septembre - 31 décembre),"45.583182552, 5.90903392417",45.583182552,5.90903392417,,,,,,,,,,,,,,,,
291,Terres de Paroles,Départementale,76378,24 rue Guillaume le Conquérant,Abbaye de Jumièges,https://www.terresdeparoles.com,muriel.amaury@terresdeparoles.com,2010 et après,2012,"Livre, littérature",,,,,"Fiction (roman, théâtre, etc.), Non-fiction (documentaire, autobiographie, essai, récit, etc.), Poésie",Après-saison (6 septembre - 31 décembre),"49.427073553, 0.831659847193",49.427073553,0.831659847193,,,,,,,,,,,,,,,,
292,Festival de Bourgogne du sud,Départementale,71463,17 Rue principale,Grange d'Arc au Chemier,https://facebook.com/FestivalDeBourgogneDuSud,arcane17desarts@orange.fr,De 2000 à 2009,2003,Musique,,"Musique classique, Musiques traditionnelles, Opéra, Théâtre musical",,,,Saison (21 juin - 5 septembre),"46.2267056236, 4.25094648512",46.2267056236,4.25094648512,,,,,,,,,,,,,,,,
293,Été en roue livre,Départementale,60057,,Dans les bibliothèques de l'Oise,https://mdo.oise.fr,isabelle.charbit@oise.fr,2010 et après,2018,"Livre, littérature",,,,,Lecture,Saison (21 juin - 5 septembre),"49.4365523321, 2.08616123661",49.4365523321,2.08616123661,,,,,,,,,,,,,,,,
294,Festi’ rencontres,Départementale,58062,,,,morvanfestirencontres@outlook.com,2010 et après,2017,Musique,,Musiques traditionnelles,,,,Après-saison (6 septembre - 31 décembre),"47.0626511564, 3.92696760176",47.0626511564,3.92696760176,,,,,,,,,,,,,,,,
295,Rencontres musicales de Conques,Départementale,12076,1  Abbatiale Sainte-Foy,,https://www.centre-europeen.com,centre.europeen@wanadoo.fr,De 1980 à 1989,1983,Musique,,,,,,Saison (21 juin - 5 septembre),"44.5952473002, 2.4201643341",44.5952473002,2.4201643341,,,,,,,,,,,,,,,,
296,Rockorama,Départementale,83144,,,https://www.rockorama.fr/,infos@rockorama.fr,de 2000 à 2009,2009,Musique,,Electro / rock,,,,Saison (21 juin - 5 septembre),"43.1499152044, 5.99222538877",43.1499152044,5.99222538877,,,,,,,,,,,,,,,,
297,Reflets du Cinéma,Départementale,53130,25 Quai André Pinçon,,http://www.lesrefletsducinema.com/,imad.makhzoum@atmospheres53.org,De 1990 à 1999,1997,"Cinéma, audiovisuel",,,"Court métrage, Documentaire, Fiction long métrage, Film d'animation",,,Avant-saison (1er janvier - 20 juin),"48.0608565468, -0.766005687142",48.0608565468,-0.766005687142,,,,,,,,,,,,,,,,
298,La constellation imaginaire,Départementale,62498,,,https://www.culturecommune.fr,f.francois@culturecommune.fr,2010 et après,2012,Spectacle vivant,,,,,,Avant-saison (1er janvier - 20 juin),"50.4374264148, 2.82105851259",50.4374264148,2.82105851259,,,,,,,,,,,,,,,,
299,Festival de Bandas,Départementale,46185,Place Saint- pierre,Scène Principale Place Saint-Pierre  Place Bossuet Condom 32100,,,,,Musique,,cuivres et percussions,,,,Avant-saison (1er janvier - 20 juin),"44.9401536689, 1.60734355344",44.9401536689,1.60734355344,,,,,,,,,,,,,,,,
300,Festival choral international en Aveyron,Départementale,12143,,Adresse administrative : Choral event 74 Traverse de la Morne 83860,https://www.choral-events.com/event/festival-choral-international-en-aveyron/,info@choral-events.com,De 2000 à 2009,2008,Musique,,,,,,Saison (21 juin - 5 septembre),"43.7281707219, 3.01706208309",43.7281707219,3.01706208309,,,,,,,,,,,,,,,,
301,Contes et rencontres,Départementale,48095,10 Quartier des carmes BP113,dans des salles polyvalentes et salles de spectacles,https://lozere.foyersruraux.org/,foyers-ruraux48@orange.fr,De 1990 à 1999,1992,Spectacle vivant,Conte,,,,,Avant-saison (1er janvier - 20 juin),"44.5294508592, 3.48086881176",44.5294508592,3.48086881176,,,,,,,,,,,,,,,,
302,Tous dehors (enfin),Départementale,5061,137 Boulevard Georges pompidou,Théâtre la passerelle - scène nationale de gap et des alpes du sud,https://www.theatre-la-passerelle.eu/Festival-Tous-dehors-enfin-16,accueil@theatre-la-passerelle.com,2010 et après,2012,Spectacle vivant,Arts de la rue,,,,,Avant-saison (1er janvier - 20 juin),"44.5798600596, 6.06486052138",44.5798600596,6.06486052138,,,,,,,,,,,,,,,,
303,Festival de théâtre amateur,Départementale,30356,Chemin des canaux,,,cd30fncta@gmail.com,2010 et après,,Spectacle vivant,Théâtre,,,,,Après-saison (6 septembre - 31 décembre),"43.825503937, 4.43410669109",43.825503937,4.43410669109,,,,,,,,,,,,,,,,
304,Festival des montagnes du Matin,Départementale,42241,,Site médiéval de Donzy,http://www.festival-des-montagnes-du-matin.com/,festival.du.matin@gmail.com,De 2000 à 2009,2009,Musique,,Musique savante occidentale,,,,Saison (21 juin - 5 septembre),"45.8878181316, 4.12707045019",45.8878181316,4.12707045019,,,,,,,,,,,,,,,,
305,L'histoire à venir,Départementale,31555,1 Avenue du château d'eau,,https://2021.lhistoireavenir.eu/,contact@lhistoireavenir.eu,2010 et après,2017,Spectacle vivant,rencontrer sur le theme de l'usage du faux et démocratie,,,,,Après-saison (6 septembre - 31 décembre),"43.5963814303, 1.43167293364",43.5963814303,1.43167293364,,,,,,,,,,,,,,,,
306,Ciné O'clock,Départementale,69266,117 Cours Emile Zola,,,direction.festivals@lezola.com,De 1990 à 1999,,"Cinéma, audiovisuel",,,Fiction long métrage,,,Avant-saison (1er janvier - 20 juin),"45.7707704179, 4.88845817426",45.7707704179,4.88845817426,,,,,,,,,,,,,,,,
307,Jazz à Brignoles,Départementale,83023,,,https://www.la-provence-verte.net/actualites/festivite-festival-jazz-abrignoles_5289762.html,,De 1980 à 1989,1989,Musique,,Jazz,,,,Saison (21 juin - 5 septembre),"43.3992941902, 6.07740244296",43.3992941902,6.07740244296,,,,,,,,,,,,,,,,
308,Festival des châteaux de Bruniquel,Départementale,82026,4 Rue de La Fraternité,Mairie,https://www.bruniqueloff.com/,festival@bruniqueloff.com,De 1990 à 1999,1997,Spectacle vivant,,,,,,Saison (21 juin - 5 septembre),"44.0521980341, 1.66009719751",44.0521980341,1.66009719751,,,,,,,,,,,,,,,,
309,Festival du livre et de l'image de montagne,Départementale,5006,17 Avenue Charles de gaulle,,,marie-laure.marfoure@ville-argentiere.fr,De 2000 à 2009,2001,"Livre, littérature",,,Documentaire montagne et aventures,,Montagne aventures,Saison (21 juin - 5 septembre),"44.7821732712, 6.47214497323",44.7821732712,6.47214497323,,,,,,,,,,,,,,,,
310,L'Air d'en Rire,Départementale,85208,5 Rue Abbé Pierre Arnaud,,https://www.airdenrire.fr,contact@airdenrire.fr,De 2000 à 2009,2004,Spectacle vivant,"Théâtre, Humour",,,,,Après-saison (6 septembre - 31 décembre),"46.8325959261, -1.3830312677",46.8325959261,-1.3830312677,,,,,,,,,,,,,,,,
311,Contes en hiver,Départementale,65440,1 Rue Miramont,,https://www.contesenhiver.com,contesenhiver@fol65.fr,De 1990 à 1999,,Spectacle vivant,Conte,,,,,Avant-saison (1er janvier - 20 juin),"43.2347859635, 0.0660093937851",43.2347859635,0.0660093937851,,,,,,,,,,,,,,,,
312,Printemps de Pérouges,Départementale,1390,1150 Avenue Les bergeries,,https://www.festival-Perouges.org,communication@festival-perouges.org,De 1990 à 1999,1997,Musique,,"Chanson ou variété française, Hip-hop, rap, slam, Métal, hard rock, Pop, rock, RnB, Variétés internationales",,,,Saison (21 juin - 5 septembre),"45.8222315102, 5.27019602929",45.8222315102,5.27019602929,,,,,,,,,,,,,,,,
313,Tous courts,Départementale,13001,1 Place John rewald,Cité du livre,https://festivaltouscourts.com,laurence@festivaltouscourts.com,De 1980 à 1989,1982,"Cinéma, audiovisuel",,,Court métrage,,,Après-saison (6 septembre - 31 décembre),"43.5360708378, 5.39857444582",43.5360708378,5.39857444582,,,,,,,,,,,,,,,,
314,Marché noir des petites utopies,Départementale,13055,41 Rue Jobin,,https://www.animatheatre.com/le-festival/,prod.animathatre@gmail.com,2010 et après,2013,Spectacle vivant,Marionnettes et théâtre d'objet,,,,,Après-saison (6 septembre - 31 décembre),"43.296346, 5.369889",43.296346,5.369889,,,,,,,,,,,,,,,,
315,Chemin des Artistes,Départementale,26362,,Différents lieux : Salle des fêtes Eglises Théatres,,actionculturelle@valenceromansagglo.fr,De 2000 à 2009,2008,"Arts visuels, arts numériques",,,,Peinture,,Après-saison (6 septembre - 31 décembre),"44.9229811667, 4.91444013136",44.9229811667,4.91444013136,,,,,,,,,,,,,,,,
316,Festival de la haute clarée,Départementale,5093,,Office du tourisme,https://www.festivalclaree.com,accueil-tourisme-nevache@orange.fr,2010 et après,,Musique,,Jazz , musique , musiques tziganes , rock,,,,Saison (21 juin - 5 septembre),"45.0441286352, 6.59862935541",45.0441286352,6.59862935541,,,,,,,,,,,,,
317,Les Rutilants,Départementale,62637,9-9 bis Chemin du Tordoir,,https://9-9bis.com/,info@9-9bis.com,De 2000 à 2009,2005,Musique,,"Chanson, variété française, Pop, Indie, Musique électronique, Rock, Rap, Funk",,,,Avant-saison (1er janvier - 20 juin),"50.4644483399, 2.99306842451",50.4644483399,2.99306842451,,,,,,,,,,,,,,,,
318,Diades François de Fossa,Départementale,66136,2 Rue des  Abreuvoirs,Perpignan,,contact@friendsoffossa.eu,2010 et après,2017,Musique,,,,,,Saison (21 juin - 5 septembre),"42.6965954131, 2.89936953979",42.6965954131,2.89936953979,,,,,,,,,,,,,,,,
319,Musiques vivantes,Départementale,3310,56 Avenue Victoria,,https://www.musiquesvivantes.com/,gestion.musiquesvivantes@gmail.com,De 1980 à 1989,1984,Musique,,Musique classique,,,,Saison (21 juin - 5 septembre),"46.1300051383, 3.42442081174",46.1300051383,3.42442081174,,,,,,,,,,,,,,,,
320,Maison des arts en balade,Départementale,13019,8493 Avenue René cassin,La trebillane,,lefunnymusical@gmail.com,2010 et après,2021,Spectacle vivant,,,,,,Saison (21 juin - 5 septembre),"43.4496421919, 5.34976663984",43.4496421919,5.34976663984,,,,,,,,,,,,,,,,
321,Autour de Brassens,Départementale,5006,Avenue De vallouise,Foyer culturel,,bonnardel@wanadoo.fr,De 2000 à 2009,2007,Musique,,"Chanson ou variété française, musique contemporaine, variétés internationales",,,,Saison (21 juin - 5 septembre),"44.7821732712, 6.47214497323",44.7821732712,6.47214497323,,,,,,,,,,,,,,,,
322,Les musicales de Ristolas,Départementale,5001,,Les chalets,https://www.musicales-de-ristolas.org,contact@musicales-de-ristolas.org,2010 et après,,Musique,,Musique savante,,,,Saison (21 juin - 5 septembre),"44.8163462455, 6.94164442809",44.8163462455,6.94164442809,,,,,,,,,,,,,,,,
323,Gamerz,Départementale,13001,1 Place Victor schoelcher,Patio du bois de l'aune,http://www.lab-gamerz.com/site/,contact@lab-gamerz.com,De 2000 à 2009,2006,"Arts visuels, arts numériques",,,,Arts numériques,,Après-saison (6 septembre - 31 décembre),"43.5360708378, 5.39857444582",43.5360708378,5.39857444582,,,,,,,,,,,,,,,,
324,Septembre musical de l'Orne,Départementale,61001,54 rue Saint Blaise,,https://www.septembre-musical.com,info@septembre-musical.com,De 1980 à 1989,1983,Musique,,Musique classique,,,,Saison (21 juin - 5 septembre),"48.4318193082, 0.0915406916107",48.4318193082,0.0915406916107,,,,,,,,,,,,,,,,
325,Voûtes Célestes,Départementale,85133,Rue de l'Abbaye,Abbayes de Maillezais,https://www.sitesculturels.vendee.fr,abbayes-sudvendee@vendee.fr,de 2000 à 2009,2001,Musique,,,,,,Avant-saison (1er janvier - 20 juin),"46.3642178261, -0.750260780443",46.3642178261,-0.750260780443,,,,,,,,,,,,,,,,
326,Féria,Départementale,66108,2 Rue Emile Zola,,,lopezbernard@sfr.fr,,,Spectacle vivant,,,,,,Saison (21 juin - 5 septembre),"42.6989825431, 2.68991104341",42.6989825431,2.68991104341,,,,,,,,,,,,,,,,
327,Alors Raconte !,Départementale,82121,7 Avenue Du 10ème Dragons,,https://www.ladepeche.fr/2022/02/03/alors-raconte-un-festival-qui-secoute-et-sapprecie-10085383.php,,De 1990 à 1999,1996,Spectacle vivant,Conte,,,,,Avant-saison (1er janvier - 20 juin),"44.0222594578, 1.36408636501",44.0222594578,1.36408636501,,,,,,,,,,,,,,,,
328,Festival de musique du Haut-Doubs,Départementale,25411,1 Place de la Halle,Théâtre,,annemercier7@gmail.com,De 1990 à 1999,1990,Musique,,Musique classique,,,,Saison (21 juin - 5 septembre),"47.063408704, 6.58305657113",47.063408704,6.58305657113,,,,,,,,,,,,,,,,
329,Plein les feuilles,Départementale,32307,2895 Chemin De Besmaux,,https://Www.plein-les-feuilles.com,pleinlesfeuilles@gmail.com,De 2000 à 2009,2006,Musique,,,,,,Saison (21 juin - 5 septembre),"43.605614575, 0.589850870884",43.605614575,0.589850870884,,,,,,,,,,,,,,,,
330,Festival du carillon de la cathédrale,Départementale,66136,6 Rue Bastion Saint-Dominique,,,laurent.pie@icloud.com / carillon.perpignan@orange.fr,De 2000 à 2009,,Musique,,,,,,Saison (21 juin - 5 septembre),"42.6965954131, 2.89936953979",42.6965954131,2.89936953979,,,,,,,,,,,,,,,,
331,Festival Eté 66,Départementale,66136,24 Quai Sadi Carnot,,https://www.tourisme-pyreneesorientales.com/festival-ete-66,cg66@cg66.fr,De 2000 à 2009,,Musique,,,,,,Saison (21 juin - 5 septembre),"42.6965954131, 2.89936953979",42.6965954131,2.89936953979,,,,,,,,,,,,,,,,
332,Festival du Forez,Départementale,42187,,Théâtre de Roanne,http://festivalduforez.com,contact@festivalduforez.com,2010 et après,2013,Musique,,Musique classique,,,,Saison (21 juin - 5 septembre),"46.0449112487, 4.0797045647",46.0449112487,4.0797045647,,,,,,,,,,,,,,,,
333,Festival de BD à Semur,Départementale,21603,25 Rue de la Liberté,rue des Coquelicots,https://unlienpourtous.wixsite.com/bd-a-semur,unlienpourtous@gmail.com,De 2000 à 2009,2006,"Livre, littérature",,,,,"Bande dessinée, comics, manga",Avant-saison (1er janvier - 20 juin),"47.4909559267, 4.34106366761",47.4909559267,4.34106366761,,,,,,,,,,,,,,,,
334,Jazz sur son 31,Départementale,31555,7 Rue Jules Chalande,,https://www.haute-garonne.fr/jazz-sur-son-31,contact.dav@cd31.fr,De 1980 à 1989,35 ans,Musique,,"Jazz, blues",,,,Après-saison (6 septembre - 31 décembre),"43.5963814303, 1.43167293364",43.5963814303,1.43167293364,,,,,,,,,,,,,,,,
