code_commune_INSEE,code_postal,latitude,longitude,code_commune,article,nom_commune,nom_commune_complet,code_departement,nom_departement,code_region,nom_region
1001,1400,46.1534255214,4.92611354223,1,L',Abergement-Clémenciat,L'Abergement-Clémenciat,1,Ain,84,Auvergne-Rhône-Alpes
1002,1640,46.0091878776,5.42801696363,2,L',Abergement-de-Varey,L'Abergement-de-Varey,1,Ain,84,Auvergne-Rhône-Alpes
1004,1500,45.9608475114,5.3729257777,4,,Ambérieu-en-Bugey,Ambérieu-en-Bugey,1,Ain,84,Auvergne-Rhône-Alpes
1005,1330,45.9961799872,4.91227250796,5,,Ambérieux-en-Dombes,Ambérieux-en-Dombes,1,Ain,84,Auvergne-Rhône-Alpes
1006,1300,45.7494989044,5.59432017366,6,,Ambléon,Ambléon,1,Ain,84,Auvergne-Rhône-Alpes
1007,1500,46.0055913782,5.35760660735,7,,Ambronay,Ambronay,1,Ain,84,Auvergne-Rhône-Alpes
1008,1500,45.9367134524,5.3328092349,8,,Ambutrix,Ambutrix,1,Ain,84,Auvergne-Rhône-Alpes
1009,1300,45.7873565333,5.65788307924,9,,Andert-et-Condon,Andert-et-Condon,1,Ain,84,Auvergne-Rhône-Alpes
1010,1350,45.9093715116,5.79516005674,10,,Anglefort,Anglefort,1,Ain,84,Auvergne-Rhône-Alpes
1011,1100,46.2054981558,5.65781475272,11,,Apremont,Apremont,1,Ain,84,Auvergne-Rhône-Alpes
1012,1110,46.0015344029,5.51130637511,12,,Aranc,Aranc,1,Ain,84,Auvergne-Rhône-Alpes
1013,1230,45.8908155275,5.49870439091,13,,Arandas,Arandas,1,Ain,84,Auvergne-Rhône-Alpes
1014,1100,46.2834936005,5.69061651221,14,,Arbent,Arbent,1,Ain,84,Auvergne-Rhône-Alpes
1015,1300,45.7237621545,5.65263086429,15,,Arboys en Bugey,Arboys en Bugey,1,Ain,84,Auvergne-Rhône-Alpes
1015,1300,45.7237621545,5.65263086429,15,,Arboys en Bugey,Arboys en Bugey,1,Ain,84,Auvergne-Rhône-Alpes
1016,1190,46.4776762988,4.9599416863,16,,Arbigny,Arbigny,1,Ain,84,Auvergne-Rhône-Alpes
1017,1230,45.9337182132,5.48251100314,17,,Argis,Argis,1,Ain,84,Auvergne-Rhône-Alpes
1019,1510,45.8541838459,5.58357838695,19,,Armix,Armix,1,Ain,84,Auvergne-Rhône-Alpes
1021,1480,45.9934611,4.82199649494,21,,Ars-sur-Formans,Ars-sur-Formans,1,Ain,84,Auvergne-Rhône-Alpes
1022,1510,45.8695891748,5.69065283943,22,,Artemare,Artemare,1,Ain,84,Auvergne-Rhône-Alpes
1023,1570,46.3857281418,4.88387478623,23,,Asnières-sur-Saône,Asnières-sur-Saône,1,Ain,84,Auvergne-Rhône-Alpes
1024,1340,46.2861802203,5.1795233845,24,,Attignat,Attignat,1,Ain,84,Auvergne-Rhône-Alpes
1025,1380,46.3233203302,4.9528678933,25,,Bâgé-Dommartin,Bâgé-Dommartin,1,Ain,84,Auvergne-Rhône-Alpes
1026,1380,46.3077069231,4.92862084189,26,,Bâgé-le-Châtel,Bâgé-le-Châtel,1,Ain,84,Auvergne-Rhône-Alpes
1027,1360,45.8311226453,5.10780019249,27,,Balan,Balan,1,Ain,84,Auvergne-Rhône-Alpes
1028,1990,46.1141214445,4.90146475101,28,,Baneins,Baneins,1,Ain,84,Auvergne-Rhône-Alpes
1029,1270,46.4288360203,5.26003405676,29,,Beaupont,Beaupont,1,Ain,84,Auvergne-Rhône-Alpes
1030,1480,46.0008580204,4.75600664694,30,,Beauregard,Beauregard,1,Ain,84,Auvergne-Rhône-Alpes
1031,1100,46.2373497134,5.6360052884,31,,Bellignat,Bellignat,1,Ain,84,Auvergne-Rhône-Alpes
1032,1360,45.8591464826,5.13989505865,32,,Béligneux,Béligneux,1,Ain,84,Auvergne-Rhône-Alpes
1032,1360,45.8591464826,5.13989505865,32,,Béligneux,Béligneux,1,Ain,84,Auvergne-Rhône-Alpes
1032,1360,45.8591464826,5.13989505865,32,,Béligneux,Béligneux,1,Ain,84,Auvergne-Rhône-Alpes
1032,1360,45.8591464826,5.13989505865,32,,Béligneux,Béligneux,1,Ain,84,Auvergne-Rhône-Alpes
1033,1200,46.1067901755,5.83202736464,33,,Bellegarde-sur-Valserine,Bellegarde-sur-Valserine,1,Ain,84,Auvergne-Rhône-Alpes
1034,1300,45.7494697806,5.68412365526,34,,Belley,Belley,1,Ain,84,Auvergne-Rhône-Alpes
1035,1130,46.2530316409,5.78471723698,35,,Belleydoux,Belleydoux,1,Ain,84,Auvergne-Rhône-Alpes
1036,1260,45.8847475883,5.65115788055,36,,Belmont-Luthézieu,Belmont-Luthézieu,1,Ain,84,Auvergne-Rhône-Alpes
1036,1260,45.8847475883,5.65115788055,36,,Belmont-Luthézieu,Belmont-Luthézieu,1,Ain,84,Auvergne-Rhône-Alpes
1037,1470,45.8374974718,5.48285330863,37,,Bénonces,Bénonces,1,Ain,84,Auvergne-Rhône-Alpes
1038,1370,46.3188629218,5.28253433405,38,,Bény,Bény,1,Ain,84,Auvergne-Rhône-Alpes
1039,1350,45.8568920052,5.75220315052,39,,Béon,Béon,1,Ain,84,Auvergne-Rhône-Alpes
1040,1340,46.3674371012,5.04021655965,40,,Béréziat,Béréziat,1,Ain,84,Auvergne-Rhône-Alpes
1041,1500,45.9368718303,5.36667617009,41,,Bettant,Bettant,1,Ain,84,Auvergne-Rhône-Alpes
1042,1290,46.2191748844,4.84642690241,42,,Bey,Bey,1,Ain,84,Auvergne-Rhône-Alpes
1043,1700,45.8390325448,4.99738002182,43,,Beynost,Beynost,1,Ain,84,Auvergne-Rhône-Alpes
1044,1200,46.0791346715,5.76591818163,44,,Billiat,Billiat,1,Ain,84,Auvergne-Rhône-Alpes
1045,1330,45.9533995502,5.03666479984,45,,Birieux,Birieux,1,Ain,84,Auvergne-Rhône-Alpes
1046,1290,46.2266794269,4.94084673168,46,,Biziat,Biziat,1,Ain,84,Auvergne-Rhône-Alpes
1047,1150,45.8469686113,5.25166055884,47,,Blyes,Blyes,1,Ain,84,Auvergne-Rhône-Alpes
1049,1120,45.8446213549,5.02783224111,49,La,Boisse,La Boisse,1,Ain,84,Auvergne-Rhône-Alpes
1050,1190,46.3727973545,4.9989764059,50,,Boissey,Boissey,1,Ain,84,Auvergne-Rhône-Alpes
1050,1380,46.3727973545,4.9989764059,50,,Boissey,Boissey,1,Ain,84,Auvergne-Rhône-Alpes
1051,1450,46.1960338503,5.47095075411,51,,Bolozon,Bolozon,1,Ain,84,Auvergne-Rhône-Alpes
1052,1330,46.0232774841,4.99252709276,52,,Bouligneux,Bouligneux,1,Ain,84,Auvergne-Rhône-Alpes
1053,1000,46.2051520382,5.24602125501,53,,Bourg-en-Bresse,Bourg-en-Bresse,1,Ain,84,Auvergne-Rhône-Alpes
1053,1000,46.2051520382,5.24602125501,53,,Bourg-en-Bresse,Bourg-en-Bresse,1,Ain,84,Auvergne-Rhône-Alpes
1054,1800,45.8861934456,5.14349196896,54,,Bourg-Saint-Christophe,Bourg-Saint-Christophe,1,Ain,84,Auvergne-Rhône-Alpes
1054,1800,45.8861934456,5.14349196896,54,,Bourg-Saint-Christophe,Bourg-Saint-Christophe,1,Ain,84,Auvergne-Rhône-Alpes
1056,1640,46.0363677631,5.46322744717,56,,Boyeux-Saint-Jérôme,Boyeux-Saint-Jérôme,1,Ain,84,Auvergne-Rhône-Alpes
1057,1190,46.4051688134,4.9135797178,57,,Boz,Boz,1,Ain,84,Auvergne-Rhône-Alpes
1058,1300,45.6416854652,5.61653371,58,,Brégnier-Cordon,Brégnier-Cordon,1,Ain,84,Auvergne-Rhône-Alpes
1059,1260,45.9500082947,5.7371892334,59,,Brénaz,Brénaz,1,Ain,84,Auvergne-Rhône-Alpes
1060,1110,46.0759940484,5.61418361314,60,,Brénod,Brénod,1,Ain,84,Auvergne-Rhône-Alpes
1061,1300,45.7135069062,5.68998154517,61,,Brens,Brens,1,Ain,84,Auvergne-Rhône-Alpes
1062,1360,45.869423064,5.1009428902,62,,Bressolles,Bressolles,1,Ain,84,Auvergne-Rhône-Alpes
1062,1360,45.869423064,5.1009428902,62,,Bressolles,Bressolles,1,Ain,84,Auvergne-Rhône-Alpes
1063,1460,46.1686327301,5.54656422194,63,,Brion,Brion,1,Ain,84,Auvergne-Rhône-Alpes
1064,1470,45.7708330939,5.48537461884,64,,Briord,Briord,1,Ain,84,Auvergne-Rhône-Alpes
1065,1310,46.2104135162,5.14487465017,65,,Buellas,Buellas,1,Ain,84,Auvergne-Rhône-Alpes
1065,1310,46.2104135162,5.14487465017,65,,Buellas,Buellas,1,Ain,84,Auvergne-Rhône-Alpes
1066,1510,45.8598709332,5.54609714598,66,La,Burbanche,La Burbanche,1,Ain,84,Auvergne-Rhône-Alpes
1067,1430,46.1256533435,5.49457379202,67,,Ceignes,Ceignes,1,Ain,84,Auvergne-Rhône-Alpes
1068,1450,46.0720202633,5.47577586118,68,,Cerdon,Cerdon,1,Ain,84,Auvergne-Rhône-Alpes
1069,1240,46.1337950959,5.26239539372,69,,Certines,Certines,1,Ain,84,Auvergne-Rhône-Alpes
1071,1170,46.315689376,6.0779844362,71,,Cessy,Cessy,1,Ain,84,Auvergne-Rhône-Alpes
1072,1250,46.1832170988,5.32007207542,72,,Ceyzériat,Ceyzériat,1,Ain,84,Auvergne-Rhône-Alpes
1073,1350,45.8335530148,5.71933090966,73,,Ceyzérieu,Ceyzérieu,1,Ain,84,Auvergne-Rhône-Alpes
1074,1320,46.0076491739,5.16936568,74,,Chalamont,Chalamont,1,Ain,84,Auvergne-Rhône-Alpes
1075,1480,46.0340545373,4.79853838574,75,,Chaleins,Chaleins,1,Ain,84,Auvergne-Rhône-Alpes
1076,1230,45.9533367734,5.53682505273,76,,Chaley,Chaley,1,Ain,84,Auvergne-Rhône-Alpes
1077,1450,46.1221539654,5.45755377201,77,,Challes-la-Montagne,Challes-la-Montagne,1,Ain,84,Auvergne-Rhône-Alpes
1078,1630,46.1768358327,5.97115092939,78,,Challex,Challex,1,Ain,84,Auvergne-Rhône-Alpes
1079,1260,45.9316447397,5.69321890072,79,,Champagne-en-Valromey,Champagne-en-Valromey,1,Ain,84,Auvergne-Rhône-Alpes
1079,1260,45.9316447397,5.69321890072,79,,Champagne-en-Valromey,Champagne-en-Valromey,1,Ain,84,Auvergne-Rhône-Alpes
1079,1260,45.9316447397,5.69321890072,79,,Champagne-en-Valromey,Champagne-en-Valromey,1,Ain,84,Auvergne-Rhône-Alpes
1080,1110,46.0198844188,5.60008759722,80,,Champdor-Corcelles,Champdor-Corcelles,1,Ain,84,Auvergne-Rhône-Alpes
1080,1110,46.0198844188,5.60008759722,80,,Champdor-Corcelles,Champdor-Corcelles,1,Ain,84,Auvergne-Rhône-Alpes
1081,1410,46.220365768,5.82233573131,81,,Champfromier,Champfromier,1,Ain,84,Auvergne-Rhône-Alpes
1082,1420,46.005695299,5.76893393185,82,,Chanay,Chanay,1,Ain,84,Auvergne-Rhône-Alpes
1083,1990,46.0934984191,4.85473364691,83,,Chaneins,Chaneins,1,Ain,84,Auvergne-Rhône-Alpes
1084,1400,46.1861812234,5.02807719246,84,,Chanoz-Châtenay,Chanoz-Châtenay,1,Ain,84,Auvergne-Rhône-Alpes
1085,1240,46.0744536905,5.02162055898,85,La,Chapelle-du-Châtelard,La Chapelle-du-Châtelard,1,Ain,84,Auvergne-Rhône-Alpes
1087,1130,46.1856344066,5.6811896084,87,,Charix,Charix,1,Ain,84,Auvergne-Rhône-Alpes
1088,1800,45.8736786869,5.2211032563,88,,Charnoz-sur-Ain,Charnoz-sur-Ain,1,Ain,84,Auvergne-Rhône-Alpes
1089,1500,45.9730390239,5.30754273532,89,,Château-Gaillard,Château-Gaillard,1,Ain,84,Auvergne-Rhône-Alpes
1090,1320,46.0259402155,5.2048590395,90,,Châtenay,Châtenay,1,Ain,84,Auvergne-Rhône-Alpes
1091,1200,46.1293337743,5.770176021,91,,Châtillon-en-Michaille,Châtillon-en-Michaille,1,Ain,84,Auvergne-Rhône-Alpes
1091,1200,46.1293337743,5.770176021,91,,Châtillon-en-Michaille,Châtillon-en-Michaille,1,Ain,84,Auvergne-Rhône-Alpes
1091,1200,46.1293337743,5.770176021,91,,Châtillon-en-Michaille,Châtillon-en-Michaille,1,Ain,84,Auvergne-Rhône-Alpes
1092,1320,45.9748017433,5.2416027725,92,,Châtillon-la-Palud,Châtillon-la-Palud,1,Ain,84,Auvergne-Rhône-Alpes
1093,1400,46.1232390685,4.95810003714,93,,Châtillon-sur-Chalaronne,Châtillon-sur-Chalaronne,1,Ain,84,Auvergne-Rhône-Alpes
1094,1190,46.4379785193,5.00693749662,94,,Chavannes-sur-Reyssouze,Chavannes-sur-Reyssouze,1,Ain,84,Auvergne-Rhône-Alpes
1095,1250,46.2750157946,5.41649423093,95,,Nivigne et Suran,Nivigne et Suran,1,Ain,84,Auvergne-Rhône-Alpes
1096,1660,46.1991513767,5.0564069258,96,,Chaveyriat,Chaveyriat,1,Ain,84,Auvergne-Rhône-Alpes
1097,1510,45.8824049535,5.72499814516,97,,Chavornay,Chavornay,1,Ain,84,Auvergne-Rhône-Alpes
1098,1300,45.7925770617,5.68477063188,98,,Chazey-Bons,Chazey-Bons,1,Ain,84,Auvergne-Rhône-Alpes
1099,1150,45.8929448968,5.25528498524,99,,Chazey-sur-Ain,Chazey-sur-Ain,1,Ain,84,Auvergne-Rhône-Alpes
1100,1510,45.8227204334,5.6050023969,100,,Cheignieu-la-Balme,Cheignieu-la-Balme,1,Ain,84,Auvergne-Rhône-Alpes
1101,1430,46.1103512578,5.58116056005,101,,Chevillard,Chevillard,1,Ain,84,Auvergne-Rhône-Alpes
1102,1190,46.38249255,4.96288275972,102,,Chevroux,Chevroux,1,Ain,84,Auvergne-Rhône-Alpes
1103,1170,46.283152935,6.04707941462,103,,Chevry,Chevry,1,Ain,84,Auvergne-Rhône-Alpes
1104,1200,46.222573373,5.87248105275,104,,Chézery-Forens,Chézery-Forens,1,Ain,84,Auvergne-Rhône-Alpes
1104,1410,46.222573373,5.87248105275,104,,Chézery-Forens,Chézery-Forens,1,Ain,84,Auvergne-Rhône-Alpes
1105,1390,45.922467454,4.88633786877,105,,Civrieux,Civrieux,1,Ain,84,Auvergne-Rhône-Alpes
1106,1250,46.2003848172,5.45082526739,106,,Cize,Cize,1,Ain,84,Auvergne-Rhône-Alpes
1107,1230,45.902146623,5.43272695486,107,,Cleyzieu,Cleyzieu,1,Ain,84,Auvergne-Rhône-Alpes
1108,1270,46.3866637865,5.3308227014,108,,Coligny,Coligny,1,Ain,84,Auvergne-Rhône-Alpes
1109,1550,46.1419227898,5.90040256654,109,,Collonges,Collonges,1,Ain,84,Auvergne-Rhône-Alpes
1110,1300,45.7361469025,5.62670101041,110,,Colomieu,Colomieu,1,Ain,84,Auvergne-Rhône-Alpes
1111,1230,45.8834810846,5.47541328981,111,,Conand,Conand,1,Ain,84,Auvergne-Rhône-Alpes
1112,1430,46.105831161,5.55568206762,112,,Condamine,Condamine,1,Ain,84,Auvergne-Rhône-Alpes
1113,1400,46.1538469834,5.08437171701,113,,Condeissiat,Condeissiat,1,Ain,84,Auvergne-Rhône-Alpes
1114,1200,46.1543700156,5.83319395258,114,,Confort,Confort,1,Ain,84,Auvergne-Rhône-Alpes
1115,1310,46.270304175,5.05775217893,115,,Confrançon,Confrançon,1,Ain,84,Auvergne-Rhône-Alpes
1116,1300,45.8009403071,5.62087768159,116,,Contrevoz,Contrevoz,1,Ain,84,Auvergne-Rhône-Alpes
1117,1300,45.7253102173,5.60442351043,117,,Conzieu,Conzieu,1,Ain,84,Auvergne-Rhône-Alpes
1118,1420,45.9659473187,5.78961970355,118,,Corbonod,Corbonod,1,Ain,84,Auvergne-Rhône-Alpes
1121,1110,46.0336885573,5.49635755029,121,,Corlier,Corlier,1,Ain,84,Auvergne-Rhône-Alpes
1122,1110,45.9442772826,5.60860828487,122,,Cormaranche-en-Bugey,Cormaranche-en-Bugey,1,Ain,84,Auvergne-Rhône-Alpes
1123,1290,46.2403530179,4.8276569593,123,,Cormoranche-sur-Saône,Cormoranche-sur-Saône,1,Ain,84,Auvergne-Rhône-Alpes
1124,1560,46.4336632942,5.22181275755,124,,Cormoz,Cormoz,1,Ain,84,Auvergne-Rhône-Alpes
1125,1250,46.2505107235,5.47152467919,125,,Corveissiat,Corveissiat,1,Ain,84,Auvergne-Rhône-Alpes
1127,1370,46.3267864521,5.35558241812,127,,Courmangoux,Courmangoux,1,Ain,84,Auvergne-Rhône-Alpes
1128,1560,46.4570082032,5.11128546723,128,,Courtes,Courtes,1,Ain,84,Auvergne-Rhône-Alpes
1129,1320,45.9663793103,5.19490390871,129,,Crans,Crans,1,Ain,84,Auvergne-Rhône-Alpes
1130,1340,46.3130831891,5.17796707174,130,,Cras-sur-Reyssouze,Cras-sur-Reyssouze,1,Ain,84,Auvergne-Rhône-Alpes
1133,1350,45.7826434885,5.76546256637,133,,Cressin-Rochefort,Cressin-Rochefort,1,Ain,84,Auvergne-Rhône-Alpes
1134,1290,46.283072336,4.87747971182,134,,Crottet,Crottet,1,Ain,84,Auvergne-Rhône-Alpes
1134,1750,46.283072336,4.87747971182,134,,Crottet,Crottet,1,Ain,84,Auvergne-Rhône-Alpes
1135,1170,46.2915659686,5.99510417092,135,,Crozet,Crozet,1,Ain,84,Auvergne-Rhône-Alpes
1136,1290,46.2220588715,4.8752193513,136,,Cruzilles-lès-Mépillat,Cruzilles-lès-Mépillat,1,Ain,84,Auvergne-Rhône-Alpes
1138,1350,45.8559966843,5.78398308932,138,,Culoz,Culoz,1,Ain,84,Auvergne-Rhône-Alpes
1139,1560,46.4885456881,5.16344336837,139,,Curciat-Dongalon,Curciat-Dongalon,1,Ain,84,Auvergne-Rhône-Alpes
1140,1310,46.273150382,5.1020896267,140,,Curtafond,Curtafond,1,Ain,84,Auvergne-Rhône-Alpes
1141,1300,45.8200002803,5.6765554896,141,,Cuzieu,Cuzieu,1,Ain,84,Auvergne-Rhône-Alpes
1142,1120,45.8531616918,5.07289166803,142,,Dagneux,Dagneux,1,Ain,84,Auvergne-Rhône-Alpes
1143,1220,46.3756333495,6.1158647611,143,,Divonne-les-Bains,Divonne-les-Bains,1,Ain,84,Auvergne-Rhône-Alpes
1144,1380,46.33627762,4.99863894,144,,Dommartin,Dommartin,1,Ain,84,Auvergne-Rhône-Alpes
1145,1240,46.0667883703,5.21665199666,145,,Dompierre-sur-Veyle,Dompierre-sur-Veyle,1,Ain,84,Auvergne-Rhône-Alpes
1146,1400,46.1415406621,4.90141714714,146,,Dompierre-sur-Chalaronne,Dompierre-sur-Chalaronne,1,Ain,84,Auvergne-Rhône-Alpes
1147,1270,46.4244066427,5.29313479651,147,,Domsure,Domsure,1,Ain,84,Auvergne-Rhône-Alpes
1148,1590,46.3133221173,5.64146584117,148,,Dortan,Dortan,1,Ain,84,Auvergne-Rhône-Alpes
1149,1500,45.984297392,5.37106901673,149,,Douvres,Douvres,1,Ain,84,Auvergne-Rhône-Alpes
1150,1250,46.2196603059,5.36799994918,150,,Drom,Drom,1,Ain,84,Auvergne-Rhône-Alpes
1151,1160,46.067579544,5.29361666429,151,,Druillat,Druillat,1,Ain,84,Auvergne-Rhône-Alpes
1152,1130,46.2271364137,5.73330448395,152,,Échallon,Échallon,1,Ain,84,Auvergne-Rhône-Alpes
1153,1170,46.3160845207,6.01926187996,153,,Échenevex,Échenevex,1,Ain,84,Auvergne-Rhône-Alpes
1154,1340,46.3380891758,5.19286414645,154,,Étrez,Étrez,1,Ain,84,Auvergne-Rhône-Alpes
1155,1230,45.965147537,5.50283599885,155,,Évosges,Évosges,1,Ain,84,Auvergne-Rhône-Alpes
1156,1800,45.9104942091,5.1249258559,156,,Faramans,Faramans,1,Ain,84,Auvergne-Rhône-Alpes
1157,1480,46.020997974,4.7620080898,157,,Fareins,Fareins,1,Ain,84,Auvergne-Rhône-Alpes
1158,1550,46.166230455,5.90019477201,158,,Farges,Farges,1,Ain,84,Auvergne-Rhône-Alpes
1159,1570,46.3365833672,4.88507050971,159,,Feillens,Feillens,1,Ain,84,Auvergne-Rhône-Alpes
1160,1210,46.2519789243,6.10826403805,160,,Ferney-Voltaire,Ferney-Voltaire,1,Ain,84,Auvergne-Rhône-Alpes
1162,1350,45.8113298005,5.74459048839,162,,Flaxieu,Flaxieu,1,Ain,84,Auvergne-Rhône-Alpes
1163,1340,46.3784759782,5.18483641417,163,,Foissiat,Foissiat,1,Ain,84,Auvergne-Rhône-Alpes
1165,1090,46.0735946256,4.81293575559,165,,Francheleins,Francheleins,1,Ain,84,Auvergne-Rhône-Alpes
1165,1090,46.0735946256,4.81293575559,165,,Francheleins,Francheleins,1,Ain,84,Auvergne-Rhône-Alpes
1165,1090,46.0735946256,4.81293575559,165,,Francheleins,Francheleins,1,Ain,84,Auvergne-Rhône-Alpes
1166,1480,45.9939065077,4.78033196905,166,,Frans,Frans,1,Ain,84,Auvergne-Rhône-Alpes
1167,1140,46.2136224825,4.82843188743,167,,Garnerans,Garnerans,1,Ain,84,Auvergne-Rhône-Alpes
1169,1090,46.1201611728,4.79288195016,169,,Genouilleux,Genouilleux,1,Ain,84,Auvergne-Rhône-Alpes
1170,1460,46.1896733539,5.55139781353,170,,Béard-Géovreissiat,Béard-Géovreissiat,1,Ain,84,Auvergne-Rhône-Alpes
1171,1100,46.2508621615,5.61271973915,171,,Géovreisset,Géovreisset,1,Ain,84,Auvergne-Rhône-Alpes
1172,1250,46.3054983344,5.45012798616,172,,Germagnat,Germagnat,1,Ain,84,Auvergne-Rhône-Alpes
1173,1170,46.3471891747,6.04650555568,173,,Gex,Gex,1,Ain,84,Auvergne-Rhône-Alpes
1174,1130,46.2227121191,5.78049809256,174,,Giron,Giron,1,Ain,84,Auvergne-Rhône-Alpes
1175,1190,46.414943437,4.95120595427,175,,Gorrevod,Gorrevod,1,Ain,84,Auvergne-Rhône-Alpes
1177,1250,46.207387937,5.43318666027,177,,Grand-Corent,Grand-Corent,1,Ain,84,Auvergne-Rhône-Alpes
1179,1290,46.2633634407,4.84621318847,179,,Grièges,Grièges,1,Ain,84,Auvergne-Rhône-Alpes
1180,1220,46.3318810665,6.11366767978,180,,Grilly,Grilly,1,Ain,84,Auvergne-Rhône-Alpes
1181,1100,46.2260039429,5.61095413441,181,,Groissiat,Groissiat,1,Ain,84,Auvergne-Rhône-Alpes
1183,1090,46.106624674,4.78159420118,183,,Guéreins,Guéreins,1,Ain,84,Auvergne-Rhône-Alpes
1184,1250,46.1611241927,5.42944457639,184,,Hautecourt-Romanèche,Hautecourt-Romanèche,1,Ain,84,Auvergne-Rhône-Alpes
1184,1250,46.1611241927,5.42944457639,184,,Hautecourt-Romanèche,Hautecourt-Romanèche,1,Ain,84,Auvergne-Rhône-Alpes
1185,1110,45.9696520061,5.57627261783,185,,Hauteville-Lompnes,Hauteville-Lompnes,1,Ain,84,Auvergne-Rhône-Alpes
1186,1110,45.9061631889,5.54077986031,186,,Hostiaz,Hostiaz,1,Ain,84,Auvergne-Rhône-Alpes
1187,1260,46.0317412192,5.70267027388,187,,Haut Valromey,Haut Valromey,1,Ain,84,Auvergne-Rhône-Alpes
1187,1260,46.0317412192,5.70267027388,187,,Haut Valromey,Haut Valromey,1,Ain,84,Auvergne-Rhône-Alpes
1187,1260,46.0317412192,5.70267027388,187,,Haut Valromey,Haut Valromey,1,Ain,84,Auvergne-Rhône-Alpes
1187,1260,46.0317412192,5.70267027388,187,,Haut Valromey,Haut Valromey,1,Ain,84,Auvergne-Rhône-Alpes
1188,1140,46.1866986838,4.88840344003,188,,Illiat,Illiat,1,Ain,84,Auvergne-Rhône-Alpes
1189,1200,46.0497734524,5.75991363273,189,,Injoux-Génissiat,Injoux-Génissiat,1,Ain,84,Auvergne-Rhône-Alpes
1189,1200,46.0497734524,5.75991363273,189,,Injoux-Génissiat,Injoux-Génissiat,1,Ain,84,Auvergne-Rhône-Alpes
1190,1680,45.7919647191,5.57389398559,190,,Innimond,Innimond,1,Ain,84,Auvergne-Rhône-Alpes
1191,1430,46.0381623415,5.52447901164,191,,Izenave,Izenave,1,Ain,84,Auvergne-Rhône-Alpes
1192,1580,46.2179780137,5.56258251719,192,,Izernore,Izernore,1,Ain,84,Auvergne-Rhône-Alpes
1193,1300,45.6557496407,5.63909140794,193,,Izieu,Izieu,1,Ain,84,Auvergne-Rhône-Alpes
1194,1480,45.9777239103,4.75984637871,194,,Jassans-Riottier,Jassans-Riottier,1,Ain,84,Auvergne-Rhône-Alpes
1195,1250,46.2150037064,5.31215372338,195,,Jasseron,Jasseron,1,Ain,84,Auvergne-Rhône-Alpes
1196,1340,46.3660828991,5.11429701617,196,,Jayat,Jayat,1,Ain,84,Auvergne-Rhône-Alpes
1197,1250,46.1464982407,5.33452833151,197,,Journans,Journans,1,Ain,84,Auvergne-Rhône-Alpes
1198,1800,45.9499899849,5.10261326872,198,,Joyeux,Joyeux,1,Ain,84,Auvergne-Rhône-Alpes
1199,1640,46.0497041467,5.41094771899,199,,Jujurieux,Jujurieux,1,Ain,84,Auvergne-Rhône-Alpes
1200,1450,46.0932491295,5.49438685213,200,,Labalme,Labalme,1,Ain,84,Auvergne-Rhône-Alpes
1202,1150,45.8917015798,5.32917518895,202,,Lagnieu,Lagnieu,1,Ain,84,Auvergne-Rhône-Alpes
1203,1290,46.2469919709,4.89933490972,203,,Laiz,Laiz,1,Ain,84,Auvergne-Rhône-Alpes
1204,1130,46.1479592076,5.71829194244,204,Le,Poizat-Lalleyriat,Le Poizat-Lalleyriat,1,Ain,84,Auvergne-Rhône-Alpes
1204,1130,46.1479592076,5.71829194244,204,Le,Poizat-Lalleyriat,Le Poizat-Lalleyriat,1,Ain,84,Auvergne-Rhône-Alpes
1205,1200,46.1323202721,5.84050985141,205,,Lancrans,Lancrans,1,Ain,84,Auvergne-Rhône-Alpes
1206,1430,46.0544405897,5.54127421165,206,,Lantenay,Lantenay,1,Ain,84,Auvergne-Rhône-Alpes
1207,1330,45.9859131165,4.98196682865,207,,Lapeyrouse,Lapeyrouse,1,Ain,84,Auvergne-Rhône-Alpes
1208,1350,45.8108837933,5.77267317838,208,,Lavours,Lavours,1,Ain,84,Auvergne-Rhône-Alpes
1209,1200,46.1086518044,5.87649017888,209,,Léaz,Léaz,1,Ain,84,Auvergne-Rhône-Alpes
1210,1410,46.2855010936,5.92927713771,210,,Lélex,Lélex,1,Ain,84,Auvergne-Rhône-Alpes
1211,1240,46.1160216305,5.20200684747,211,,Lent,Lent,1,Ain,84,Auvergne-Rhône-Alpes
1212,1560,46.4114892731,5.15107164478,212,,Lescheroux,Lescheroux,1,Ain,84,Auvergne-Rhône-Alpes
1213,1150,45.9269989549,5.2947657235,213,,Leyment,Leyment,1,Ain,84,Auvergne-Rhône-Alpes
1214,1450,46.1624187428,5.47633297491,214,,Leyssard,Leyssard,1,Ain,84,Auvergne-Rhône-Alpes
1215,1420,46.0238143134,5.76236736492,215,,Lhôpital,Lhôpital,1,Ain,84,Auvergne-Rhône-Alpes
1216,1680,45.7444141403,5.53602066955,216,,Lhuis,Lhuis,1,Ain,84,Auvergne-Rhône-Alpes
1218,1260,45.9302479879,5.7413126836,218,,Lochieu,Lochieu,1,Ain,84,Auvergne-Rhône-Alpes
1219,1680,45.8105943351,5.52320457866,219,,Lompnas,Lompnas,1,Ain,84,Auvergne-Rhône-Alpes
1221,1260,45.9690865613,5.65968816497,221,,Lompnieu,Lompnieu,1,Ain,84,Auvergne-Rhône-Alpes
1224,1360,45.7921564114,5.21770971647,224,,Loyettes,Loyettes,1,Ain,84,Auvergne-Rhône-Alpes
1225,1090,46.061730034,4.78075207026,225,,Lurcy,Lurcy,1,Ain,84,Auvergne-Rhône-Alpes
1227,1300,45.7754050255,5.71540945601,227,,Magnieu,Magnieu,1,Ain,84,Auvergne-Rhône-Alpes
1228,1430,46.1201642836,5.52854394238,228,,Maillat,Maillat,1,Ain,84,Auvergne-Rhône-Alpes
1229,1340,46.3295545661,5.14386299599,229,,Malafretaz,Malafretaz,1,Ain,84,Auvergne-Rhône-Alpes
1230,1560,46.4302754511,5.10675899732,230,,Mantenay-Montlin,Mantenay-Montlin,1,Ain,84,Auvergne-Rhône-Alpes
1231,1570,46.3643830585,4.90242777155,231,,Manziat,Manziat,1,Ain,84,Auvergne-Rhône-Alpes
1232,1851,46.3434312497,5.24374534963,232,,Marboz,Marboz,1,Ain,84,Auvergne-Rhône-Alpes
1233,1680,45.7738495266,5.54985181107,233,,Marchamp,Marchamp,1,Ain,84,Auvergne-Rhône-Alpes
1234,1300,45.8010384947,5.71570352924,234,,Marignieu,Marignieu,1,Ain,84,Auvergne-Rhône-Alpes
1235,1240,46.0549073186,5.0741150816,235,,Marlieux,Marlieux,1,Ain,84,Auvergne-Rhône-Alpes
1236,1340,46.3409117711,5.06434294764,236,,Marsonnas,Marsonnas,1,Ain,84,Auvergne-Rhône-Alpes
1237,1100,46.2030768095,5.61384033805,237,,Martignat,Martignat,1,Ain,84,Auvergne-Rhône-Alpes
1238,1600,45.9094016817,4.82779660051,238,,Massieux,Massieux,1,Ain,84,Auvergne-Rhône-Alpes
1239,1300,45.7571503942,5.7620535823,239,,Massignieu-de-Rives,Massignieu-de-Rives,1,Ain,84,Auvergne-Rhône-Alpes
1240,1580,46.2565319445,5.53958933702,240,,Matafelon-Granges,Matafelon-Granges,1,Ain,84,Auvergne-Rhône-Alpes
1240,1580,46.2565319445,5.53958933702,240,,Matafelon-Granges,Matafelon-Granges,1,Ain,84,Auvergne-Rhône-Alpes
1241,1370,46.244997627,5.33594738489,241,,Meillonnas,Meillonnas,1,Ain,84,Auvergne-Rhône-Alpes
1242,1450,46.0648564341,5.44210660051,242,,Mérignat,Mérignat,1,Ain,84,Auvergne-Rhône-Alpes
1243,1480,46.0472670758,4.75935643933,243,,Messimy-sur-Saône,Messimy-sur-Saône,1,Ain,84,Auvergne-Rhône-Alpes
1244,1800,45.9060530318,5.20404833653,244,,Meximieux,Meximieux,1,Ain,84,Auvergne-Rhône-Alpes
1245,1250,46.1427060662,5.3780109646,245,,Bohas-Meyriat-Rignat,Bohas-Meyriat-Rignat,1,Ain,84,Auvergne-Rhône-Alpes
1245,1250,46.1427060662,5.3780109646,245,,Bohas-Meyriat-Rignat,Bohas-Meyriat-Rignat,1,Ain,84,Auvergne-Rhône-Alpes
1245,1250,46.1427060662,5.3780109646,245,,Bohas-Meyriat-Rignat,Bohas-Meyriat-Rignat,1,Ain,84,Auvergne-Rhône-Alpes
1246,1660,46.2423102101,5.04725416984,246,,Mézériat,Mézériat,1,Ain,84,Auvergne-Rhône-Alpes
1247,1170,46.3622451724,6.00902631941,247,,Mijoux,Mijoux,1,Ain,84,Auvergne-Rhône-Alpes
1247,1410,46.3622451724,6.00902631941,247,,Mijoux,Mijoux,1,Ain,84,Auvergne-Rhône-Alpes
1248,1390,45.8955939299,4.92416967439,248,,Mionnay,Mionnay,1,Ain,84,Auvergne-Rhône-Alpes
1249,1700,45.8442099203,4.94106746787,249,,Miribel,Miribel,1,Ain,84,Auvergne-Rhône-Alpes
1249,1700,45.8442099203,4.94106746787,249,,Miribel,Miribel,1,Ain,84,Auvergne-Rhône-Alpes
1249,1700,45.8442099203,4.94106746787,249,,Miribel,Miribel,1,Ain,84,Auvergne-Rhône-Alpes
1250,1600,45.9762325343,4.81028471711,250,,Misérieux,Misérieux,1,Ain,84,Auvergne-Rhône-Alpes
1252,1140,46.1446696076,4.820110702,252,,Mogneneins,Mogneneins,1,Ain,84,Auvergne-Rhône-Alpes
1254,1250,46.1686969123,5.27962107938,254,,Montagnat,Montagnat,1,Ain,84,Auvergne-Rhône-Alpes
1255,1470,45.799449019,5.46428608859,255,,Montagnieu,Montagnieu,1,Ain,84,Auvergne-Rhône-Alpes
1257,1200,46.17325293,5.79006091307,257,,Montanges,Montanges,1,Ain,84,Auvergne-Rhône-Alpes
1258,1090,46.0962893261,4.80453564172,258,,Montceaux,Montceaux,1,Ain,84,Auvergne-Rhône-Alpes
1259,1310,46.219333227,5.11149132074,259,,Montcet,Montcet,1,Ain,84,Auvergne-Rhône-Alpes
1260,1800,45.9287482486,5.07092815964,260,Le,Montellier,Le Montellier,1,Ain,84,Auvergne-Rhône-Alpes
1261,1390,45.9622791838,4.94555984534,261,,Monthieux,Monthieux,1,Ain,84,Auvergne-Rhône-Alpes
1262,1120,45.8909006209,5.01987566185,262,,Montluel,Montluel,1,Ain,84,Auvergne-Rhône-Alpes
1262,1120,45.8909006209,5.01987566185,262,,Montluel,Montluel,1,Ain,84,Auvergne-Rhône-Alpes
1262,1120,45.8909006209,5.01987566185,262,,Montluel,Montluel,1,Ain,84,Auvergne-Rhône-Alpes
1263,1090,46.0849573236,4.7608579486,263,,Montmerle-sur-Saône,Montmerle-sur-Saône,1,Ain,84,Auvergne-Rhône-Alpes
1264,1310,46.1867200301,5.11706011755,264,,Montracol,Montracol,1,Ain,84,Auvergne-Rhône-Alpes
1265,1460,46.1795688194,5.59510550127,265,,Montréal-la-Cluse,Montréal-la-Cluse,1,Ain,84,Auvergne-Rhône-Alpes
1266,1340,46.3252811442,5.11295966315,266,,Montrevel-en-Bresse,Montrevel-en-Bresse,1,Ain,84,Auvergne-Rhône-Alpes
1267,1460,46.1830720992,5.51435812316,267,,Nurieux-Volognat,Nurieux-Volognat,1,Ain,84,Auvergne-Rhône-Alpes
1267,1460,46.1830720992,5.51435812316,267,,Nurieux-Volognat,Nurieux-Volognat,1,Ain,84,Auvergne-Rhône-Alpes
1268,1300,45.6420014274,5.66039684889,268,,Murs-et-Gélignieux,Murs-et-Gélignieux,1,Ain,84,Auvergne-Rhône-Alpes
1269,1130,46.1537845403,5.61352793799,269,,Nantua,Nantua,1,Ain,84,Auvergne-Rhône-Alpes
1269,1460,46.1537845403,5.61352793799,269,,Nantua,Nantua,1,Ain,84,Auvergne-Rhône-Alpes
1272,1400,46.1567753049,5.00942432434,272,,Neuville-les-Dames,Neuville-les-Dames,1,Ain,84,Auvergne-Rhône-Alpes
1273,1160,46.0909654813,5.37349784691,273,,Neuville-sur-Ain,Neuville-sur-Ain,1,Ain,84,Auvergne-Rhône-Alpes
1274,1130,46.1342937114,5.63714517869,274,Les,Neyrolles,Les Neyrolles,1,Ain,84,Auvergne-Rhône-Alpes
1275,1700,45.8184192468,4.9309045685,275,,Neyron,Neyron,1,Ain,84,Auvergne-Rhône-Alpes
1276,1120,45.8222941077,5.05949629195,276,,Niévroz,Niévroz,1,Ain,84,Auvergne-Rhône-Alpes
1277,1230,45.9999448244,5.45847815374,277,,Nivollet-Montgriffon,Nivollet-Montgriffon,1,Ain,84,Auvergne-Rhône-Alpes
1279,1230,45.9651165469,5.47146617499,279,,Oncieu,Oncieu,1,Ain,84,Auvergne-Rhône-Alpes
1280,1510,45.8339690378,5.5395794296,280,,Ordonnaz,Ordonnaz,1,Ain,84,Auvergne-Rhône-Alpes
1281,1210,46.2774557513,6.09454723599,281,,Ornex,Ornex,1,Ain,84,Auvergne-Rhône-Alpes
1282,1430,46.067796636,5.55697547429,282,,Outriaz,Outriaz,1,Ain,84,Auvergne-Rhône-Alpes
1283,1100,46.2605435859,5.65344320923,283,,Oyonnax,Oyonnax,1,Ain,84,Auvergne-Rhône-Alpes
1283,1100,46.2605435859,5.65344320923,283,,Oyonnax,Oyonnax,1,Ain,84,Auvergne-Rhône-Alpes
1283,1100,46.2605435859,5.65344320923,283,,Oyonnax,Oyonnax,1,Ain,84,Auvergne-Rhône-Alpes
1284,1190,46.3867168877,4.91805840196,284,,Ozan,Ozan,1,Ain,84,Auvergne-Rhône-Alpes
1285,1600,45.9184267932,4.82747423402,285,,Parcieux,Parcieux,1,Ain,84,Auvergne-Rhône-Alpes
1286,1300,45.7437340183,5.73800737134,286,,Parves et Nattages,Parves et Nattages,1,Ain,84,Auvergne-Rhône-Alpes
1286,1300,45.7437340183,5.73800737134,286,,Parves et Nattages,Parves et Nattages,1,Ain,84,Auvergne-Rhône-Alpes
1288,1630,46.1913554154,5.91968751164,288,,Péron,Péron,1,Ain,84,Auvergne-Rhône-Alpes
1289,1960,46.1711903413,5.21802169564,289,,Péronnas,Péronnas,1,Ain,84,Auvergne-Rhône-Alpes
1290,1800,45.8803945768,5.17955874977,290,,Pérouges,Pérouges,1,Ain,84,Auvergne-Rhône-Alpes
1291,1540,46.2465065604,4.97464940331,291,,Perrex,Perrex,1,Ain,84,Auvergne-Rhône-Alpes
1293,1430,46.1498184067,5.50572312284,293,,Peyriat,Peyriat,1,Ain,84,Auvergne-Rhône-Alpes
1294,1300,45.6762428663,5.67912809192,294,,Peyrieu,Peyrieu,1,Ain,84,Auvergne-Rhône-Alpes
1295,1140,46.1226331853,4.82243226719,295,,Peyzieux-sur-Saône,Peyzieux-sur-Saône,1,Ain,84,Auvergne-Rhône-Alpes
1296,1270,46.385801285,5.27417594024,296,,Pirajoux,Pirajoux,1,Ain,84,Auvergne-Rhône-Alpes
1297,1120,45.8928509581,5.08915465965,297,,Pizay,Pizay,1,Ain,84,Auvergne-Rhône-Alpes
1298,1130,46.1883038423,5.71763811249,298,,Plagne,Plagne,1,Ain,84,Auvergne-Rhône-Alpes
1299,1330,46.0230264227,5.08912046926,299,Le,Plantay,Le Plantay,1,Ain,84,Auvergne-Rhône-Alpes
1301,1310,46.2463108642,5.13794412439,301,,Polliat,Polliat,1,Ain,84,Auvergne-Rhône-Alpes
1302,1350,45.7965373468,5.74794515549,302,,Pollieu,Pollieu,1,Ain,84,Auvergne-Rhône-Alpes
1303,1450,46.089530586,5.41681266947,303,,Poncin,Poncin,1,Ain,84,Auvergne-Rhône-Alpes
1304,1160,46.0542077091,5.34703652618,304,,Pont-d'Ain,Pont-d'Ain,1,Ain,84,Auvergne-Rhône-Alpes
1305,1190,46.4422864477,4.92862459427,305,,Pont-de-Vaux,Pont-de-Vaux,1,Ain,84,Auvergne-Rhône-Alpes
1306,1290,46.2637215091,4.88186068102,306,,Pont-de-Veyle,Pont-de-Veyle,1,Ain,84,Auvergne-Rhône-Alpes
1307,1460,46.155963139,5.57615832883,307,,Port,Port,1,Ain,84,Auvergne-Rhône-Alpes
1308,1550,46.1450914685,5.95100479291,308,,Pougny,Pougny,1,Ain,84,Auvergne-Rhône-Alpes
1309,1250,46.3219301481,5.42318000482,309,,Pouillat,Pouillat,1,Ain,84,Auvergne-Rhône-Alpes
1310,1300,45.6806263123,5.64396081449,310,,Prémeyzel,Prémeyzel,1,Ain,84,Auvergne-Rhône-Alpes
1311,1110,45.876457149,5.56475010385,311,,Prémillieu,Prémillieu,1,Ain,84,Auvergne-Rhône-Alpes
1313,1280,46.25827228,6.07223251859,313,,Prévessin-Moëns,Prévessin-Moëns,1,Ain,84,Auvergne-Rhône-Alpes
1313,1280,46.25827228,6.07223251859,313,,Prévessin-Moëns,Prévessin-Moëns,1,Ain,84,Auvergne-Rhône-Alpes
1314,1160,46.0197521486,5.28523353803,314,,Priay,Priay,1,Ain,84,Auvergne-Rhône-Alpes
1316,1510,45.8176794806,5.64970405499,316,,Pugieu,Pugieu,1,Ain,84,Auvergne-Rhône-Alpes
1317,1250,46.1905550894,5.35572056985,317,,Ramasse,Ramasse,1,Ain,84,Auvergne-Rhône-Alpes
1318,1390,45.9673905154,4.86343025951,318,,Rancé,Rancé,1,Ain,84,Auvergne-Rhône-Alpes
1319,1990,46.0843657897,4.94176845356,319,,Relevant,Relevant,1,Ain,84,Auvergne-Rhône-Alpes
1320,1750,46.3077356023,4.8746938271,320,,Replonges,Replonges,1,Ain,84,Auvergne-Rhône-Alpes
1321,1250,46.1615355815,5.33543916388,321,,Revonnas,Revonnas,1,Ain,84,Auvergne-Rhône-Alpes
1322,1600,45.9367652442,4.82840395968,322,,Reyrieux,Reyrieux,1,Ain,84,Auvergne-Rhône-Alpes
1323,1190,46.4285569061,4.91285056272,323,,Reyssouze,Reyssouze,1,Ain,84,Auvergne-Rhône-Alpes
1325,1800,45.9518762734,5.16936671105,325,,Rignieux-le-Franc,Rignieux-le-Franc,1,Ain,84,Auvergne-Rhône-Alpes
1328,1400,46.1237520756,5.0217131176,328,,Romans,Romans,1,Ain,84,Auvergne-Rhône-Alpes
1329,1510,45.8363854589,5.59926863007,329,,Rossillon,Rossillon,1,Ain,84,Auvergne-Rhône-Alpes
1330,1260,46.0037108867,5.65322391497,330,,Ruffieu,Ruffieu,1,Ain,84,Auvergne-Rhône-Alpes
1331,1450,46.0983335519,5.45573839846,331,,Saint-Alban,Saint-Alban,1,Ain,84,Auvergne-Rhône-Alpes
1332,1380,46.298541568,4.91411565769,332,,Saint-André-de-Bâgé,Saint-André-de-Bâgé,1,Ain,84,Auvergne-Rhône-Alpes
1333,1390,45.927001954,4.95373324492,333,,Saint-André-de-Corcy,Saint-André-de-Corcy,1,Ain,84,Auvergne-Rhône-Alpes
1334,1290,46.2140960915,4.91291358797,334,,Saint-André-d'Huiriat,Saint-André-d'Huiriat,1,Ain,84,Auvergne-Rhône-Alpes
1335,1240,46.1131399612,5.0802376895,335,,Saint-André-le-Bouchoux,Saint-André-le-Bouchoux,1,Ain,84,Auvergne-Rhône-Alpes
1336,1960,46.1492410532,5.14175200148,336,,Saint-André-sur-Vieux-Jonc,Saint-André-sur-Vieux-Jonc,1,Ain,84,Auvergne-Rhône-Alpes
1337,1190,46.4519173207,4.95309825903,337,,Saint-Bénigne,Saint-Bénigne,1,Ain,84,Auvergne-Rhône-Alpes
1338,1300,45.6891842277,5.5843972561,338,,Groslée-Saint-Benoit,Groslée-Saint-Benoit,1,Ain,84,Auvergne-Rhône-Alpes
1338,1680,45.6891842277,5.5843972561,338,,Groslée-Saint-Benoit,Groslée-Saint-Benoit,1,Ain,84,Auvergne-Rhône-Alpes
1339,1600,45.9493830581,4.74276628471,339,,Saint-Bernard,Saint-Bernard,1,Ain,84,Auvergne-Rhône-Alpes
1341,1300,45.7825741014,5.7326531461,341,,Saint-Champ,Saint-Champ,1,Ain,84,Auvergne-Rhône-Alpes
1342,1120,45.895522477,5.04935536228,342,,Sainte-Croix,Sainte-Croix,1,Ain,84,Auvergne-Rhône-Alpes
1343,1380,46.2754005606,4.96757105158,343,,Saint-Cyr-sur-Menthon,Saint-Cyr-sur-Menthon,1,Ain,84,Auvergne-Rhône-Alpes
1344,1000,46.2111998453,5.18462806771,344,,Saint-Denis-lès-Bourg,Saint-Denis-lès-Bourg,1,Ain,84,Auvergne-Rhône-Alpes
1345,1500,45.9488551151,5.32367701698,345,,Saint-Denis-en-Bugey,Saint-Denis-en-Bugey,1,Ain,84,Auvergne-Rhône-Alpes
1346,1340,46.3069992095,5.05820697692,346,,Saint-Didier-d'Aussiat,Saint-Didier-d'Aussiat,1,Ain,84,Auvergne-Rhône-Alpes
1347,1600,45.9564926067,4.77766764875,347,,Saint-Didier-de-Formans,Saint-Didier-de-Formans,1,Ain,84,Auvergne-Rhône-Alpes
1348,1140,46.1840408682,4.81645666173,348,,Saint-Didier-sur-Chalaronne,Saint-Didier-sur-Chalaronne,1,Ain,84,Auvergne-Rhône-Alpes
1349,1800,45.9322494861,5.15187041178,349,,Saint-Éloi,Saint-Éloi,1,Ain,84,Auvergne-Rhône-Alpes
1350,1370,46.2749447261,5.28428557632,350,,Saint-Étienne-du-Bois,Saint-Étienne-du-Bois,1,Ain,84,Auvergne-Rhône-Alpes
1351,1140,46.1468059584,4.86696454244,351,,Saint-Étienne-sur-Chalaronne,Saint-Étienne-sur-Chalaronne,1,Ain,84,Auvergne-Rhône-Alpes
1352,1190,46.4030398952,5.00605581573,352,,Saint-Étienne-sur-Reyssouze,Saint-Étienne-sur-Reyssouze,1,Ain,84,Auvergne-Rhône-Alpes
1353,1600,45.9669798317,4.79478189169,353,,Sainte-Euphémie,Sainte-Euphémie,1,Ain,84,Auvergne-Rhône-Alpes
1354,1630,46.254539333,6.0362907345,354,,Saint-Genis-Pouilly,Saint-Genis-Pouilly,1,Ain,84,Auvergne-Rhône-Alpes
1355,1380,46.2815955593,5.01311826405,355,,Saint-Genis-sur-Menthon,Saint-Genis-sur-Menthon,1,Ain,84,Auvergne-Rhône-Alpes
1356,1400,46.1037951263,5.03001967494,356,,Saint-Georges-sur-Renon,Saint-Georges-sur-Renon,1,Ain,84,Auvergne-Rhône-Alpes
1357,1130,46.1821955394,5.74672259773,357,,Saint-Germain-de-Joux,Saint-Germain-de-Joux,1,Ain,84,Auvergne-Rhône-Alpes
1358,1300,45.7709749249,5.61753440834,358,,Saint-Germain-les-Paroisses,Saint-Germain-les-Paroisses,1,Ain,84,Auvergne-Rhône-Alpes
1359,1240,46.0797285417,5.06090903982,359,,Saint-Germain-sur-Renon,Saint-Germain-sur-Renon,1,Ain,84,Auvergne-Rhône-Alpes
1360,1630,46.2178585727,5.94203093769,360,,Saint-Jean-de-Gonville,Saint-Jean-de-Gonville,1,Ain,84,Auvergne-Rhône-Alpes
1361,1800,45.8405002569,5.21167430462,361,,Saint-Jean-de-Niost,Saint-Jean-de-Niost,1,Ain,84,Auvergne-Rhône-Alpes
1362,1390,45.9598424323,4.89936410681,362,,Saint-Jean-de-Thurigneux,Saint-Jean-de-Thurigneux,1,Ain,84,Auvergne-Rhône-Alpes
1363,1640,46.0291437714,5.38252835538,363,,Saint-Jean-le-Vieux,Saint-Jean-le-Vieux,1,Ain,84,Auvergne-Rhône-Alpes
1364,1560,46.3972479854,5.06297763777,364,,Saint-Jean-sur-Reyssouze,Saint-Jean-sur-Reyssouze,1,Ain,84,Auvergne-Rhône-Alpes
1365,1290,46.2683632132,4.92198366998,365,,Saint-Jean-sur-Veyle,Saint-Jean-sur-Veyle,1,Ain,84,Auvergne-Rhône-Alpes
1366,1150,45.8819723176,5.28452304614,366,,Sainte-Julie,Sainte-Julie,1,Ain,84,Auvergne-Rhône-Alpes
1367,1560,46.3997655501,5.10354296019,367,,Saint-Julien-sur-Reyssouze,Saint-Julien-sur-Reyssouze,1,Ain,84,Auvergne-Rhône-Alpes
1368,1540,46.2014862081,4.959356342,368,,Saint-Julien-sur-Veyle,Saint-Julien-sur-Veyle,1,Ain,84,Auvergne-Rhône-Alpes
1369,1250,46.1929758576,5.28494181398,369,,Saint-Just,Saint-Just,1,Ain,84,Auvergne-Rhône-Alpes
1370,1750,46.3051486294,4.83949202669,370,,Saint-Laurent-sur-Saône,Saint-Laurent-sur-Saône,1,Ain,84,Auvergne-Rhône-Alpes
1371,1390,45.9485803654,4.9896671017,371,,Saint-Marcel,Saint-Marcel,1,Ain,84,Auvergne-Rhône-Alpes
1372,1510,45.848212674,5.67889099153,372,,Saint-Martin-de-Bavel,Saint-Martin-de-Bavel,1,Ain,84,Auvergne-Rhône-Alpes
1373,1430,46.135983782,5.57106016428,373,,Saint-Martin-du-Frêne,Saint-Martin-du-Frêne,1,Ain,84,Auvergne-Rhône-Alpes
1374,1160,46.1061500835,5.32551470817,374,,Saint-Martin-du-Mont,Saint-Martin-du-Mont,1,Ain,84,Auvergne-Rhône-Alpes
1375,1310,46.291445874,5.12291715091,375,,Saint-Martin-le-Châtel,Saint-Martin-le-Châtel,1,Ain,84,Auvergne-Rhône-Alpes
1376,1700,45.8343709108,4.97726215174,376,,Saint-Maurice-de-Beynost,Saint-Maurice-de-Beynost,1,Ain,84,Auvergne-Rhône-Alpes
1378,1800,45.8200191939,5.16980415584,378,,Saint-Maurice-de-Gourdans,Saint-Maurice-de-Gourdans,1,Ain,84,Auvergne-Rhône-Alpes
1379,1500,45.9527471237,5.2708276475,379,,Saint-Maurice-de-Rémens,Saint-Maurice-de-Rémens,1,Ain,84,Auvergne-Rhône-Alpes
1380,1560,46.4528537121,5.1759906585,380,,Saint-Nizier-le-Bouchoux,Saint-Nizier-le-Bouchoux,1,Ain,84,Auvergne-Rhône-Alpes
1381,1320,46.052861561,5.14246131764,381,,Saint-Nizier-le-Désert,Saint-Nizier-le-Désert,1,Ain,84,Auvergne-Rhône-Alpes
1382,1330,46.0142006121,4.93624894982,382,,Sainte-Olive,Sainte-Olive,1,Ain,84,Auvergne-Rhône-Alpes
1383,1240,46.0956691617,5.12762470203,383,,Saint-Paul-de-Varax,Saint-Paul-de-Varax,1,Ain,84,Auvergne-Rhône-Alpes
1384,1230,45.9504631708,5.44017084612,384,,Saint-Rambert-en-Bugey,Saint-Rambert-en-Bugey,1,Ain,84,Auvergne-Rhône-Alpes
1385,1310,46.1846642149,5.16771354778,385,,Saint-Rémy,Saint-Rémy,1,Ain,84,Auvergne-Rhône-Alpes
1386,1150,45.886308438,5.37608915006,386,,Saint-Sorlin-en-Bugey,Saint-Sorlin-en-Bugey,1,Ain,84,Auvergne-Rhône-Alpes
1387,1340,46.3209806116,5.04148389346,387,,Saint-Sulpice,Saint-Sulpice,1,Ain,84,Auvergne-Rhône-Alpes
1388,1560,46.4612969335,5.06679195727,388,,Saint-Trivier-de-Courtes,Saint-Trivier-de-Courtes,1,Ain,84,Auvergne-Rhône-Alpes
1389,1990,46.0618477991,4.90158948884,389,,Saint-Trivier-sur-Moignans,Saint-Trivier-sur-Moignans,1,Ain,84,Auvergne-Rhône-Alpes
1390,1150,45.8222315102,5.27019602929,390,,Saint-Vulbas,Saint-Vulbas,1,Ain,84,Auvergne-Rhône-Alpes
1391,1270,46.3635396668,5.34742387197,391,,Salavre,Salavre,1,Ain,84,Auvergne-Rhône-Alpes
1392,1580,46.2648715781,5.58607689306,392,,Samognat,Samognat,1,Ain,84,Auvergne-Rhône-Alpes
1393,1400,46.0656961548,4.98282673172,393,,Sandrans,Sandrans,1,Ain,84,Auvergne-Rhône-Alpes
1396,1150,45.8654038798,5.40416104083,396,,Sault-Brénaz,Sault-Brénaz,1,Ain,84,Auvergne-Rhône-Alpes
1397,1220,46.3126908233,6.11043836433,397,,Sauverny,Sauverny,1,Ain,84,Auvergne-Rhône-Alpes
1398,1480,45.997346828,4.8576200906,398,,Savigneux,Savigneux,1,Ain,84,Auvergne-Rhône-Alpes
1399,1170,46.2935928404,6.07287743792,399,,Ségny,Ségny,1,Ain,84,Auvergne-Rhône-Alpes
1400,1470,45.7976976614,5.49810658524,400,,Seillonnaz,Seillonnaz,1,Ain,84,Auvergne-Rhône-Alpes
1401,1630,46.2626243003,5.98914553194,401,,Sergy,Sergy,1,Ain,84,Auvergne-Rhône-Alpes
1402,1190,46.4981991944,4.97856020441,402,,Sermoyer,Sermoyer,1,Ain,84,Auvergne-Rhône-Alpes
1403,1470,45.8133219416,5.44125880379,403,,Serrières-de-Briord,Serrières-de-Briord,1,Ain,84,Auvergne-Rhône-Alpes
1404,1450,46.1466977757,5.45023362942,404,,Serrières-sur-Ain,Serrières-sur-Ain,1,Ain,84,Auvergne-Rhône-Alpes
1405,1960,46.1385540577,5.17887070992,405,,Servas,Servas,1,Ain,84,Auvergne-Rhône-Alpes
1406,1560,46.4346497878,5.05559973107,406,,Servignat,Servignat,1,Ain,84,Auvergne-Rhône-Alpes
1407,1420,45.9484118176,5.82616979887,407,,Seyssel,Seyssel,1,Ain,84,Auvergne-Rhône-Alpes
1408,1250,46.2340471594,5.42240815305,408,,Simandre-sur-Suran,Simandre-sur-Suran,1,Ain,84,Auvergne-Rhône-Alpes
1410,1580,46.2229768712,5.50566888767,410,,Sonthonnax-la-Montagne,Sonthonnax-la-Montagne,1,Ain,84,Auvergne-Rhône-Alpes
1410,1580,46.2229768712,5.50566888767,410,,Sonthonnax-la-Montagne,Sonthonnax-la-Montagne,1,Ain,84,Auvergne-Rhône-Alpes
1411,1150,45.8781798572,5.43058627512,411,,Souclin,Souclin,1,Ain,84,Auvergne-Rhône-Alpes
1412,1400,46.1735383313,4.95772382526,412,,Sulignat,Sulignat,1,Ain,84,Auvergne-Rhône-Alpes
1413,1420,46.030402108,5.79957920623,413,,Surjoux,Surjoux,1,Ain,84,Auvergne-Rhône-Alpes
1414,1260,45.9311367808,5.64988248129,414,,Sutrieu,Sutrieu,1,Ain,84,Auvergne-Rhône-Alpes
1414,1260,45.9311367808,5.64988248129,414,,Sutrieu,Sutrieu,1,Ain,84,Auvergne-Rhône-Alpes
1414,1260,45.9311367808,5.64988248129,414,,Sutrieu,Sutrieu,1,Ain,84,Auvergne-Rhône-Alpes
1415,1510,45.8637167128,5.72090411074,415,,Talissieu,Talissieu,1,Ain,84,Auvergne-Rhône-Alpes
1416,1230,45.922698278,5.51453923595,416,,Tenay,Tenay,1,Ain,84,Auvergne-Rhône-Alpes
1417,1110,45.8931883593,5.59700638944,417,,Thézillieu,Thézillieu,1,Ain,84,Auvergne-Rhône-Alpes
1418,1120,45.8169214201,5.0184098869,418,,Thil,Thil,1,Ain,84,Auvergne-Rhône-Alpes
1419,1710,46.2435475879,5.96506297987,419,,Thoiry,Thoiry,1,Ain,84,Auvergne-Rhône-Alpes
1420,1140,46.1700943481,4.79387095814,420,,Thoissey,Thoissey,1,Ain,84,Auvergne-Rhône-Alpes
1421,1230,45.92125055,5.40400282244,421,,Torcieu,Torcieu,1,Ain,84,Auvergne-Rhône-Alpes
1422,1250,46.1384790158,5.30400055922,422,,Tossiat,Tossiat,1,Ain,84,Auvergne-Rhône-Alpes
1423,1600,45.959898291,4.82898610612,423,,Toussieux,Toussieux,1,Ain,84,Auvergne-Rhône-Alpes
1424,1390,45.8745670311,4.9639268325,424,,Tramoyes,Tramoyes,1,Ain,84,Auvergne-Rhône-Alpes
1425,1160,46.0970027075,5.26099875456,425,La,Tranclière,La Tranclière,1,Ain,84,Auvergne-Rhône-Alpes
1426,1370,46.2803281838,5.36083165162,426,,Val-Revermont,Val-Revermont,1,Ain,84,Auvergne-Rhône-Alpes
1426,1370,46.2803281838,5.36083165162,426,,Val-Revermont,Val-Revermont,1,Ain,84,Auvergne-Rhône-Alpes
1426,1370,46.2803281838,5.36083165162,426,,Val-Revermont,Val-Revermont,1,Ain,84,Auvergne-Rhône-Alpes
1427,1600,45.940671655,4.7714415007,427,,Trévoux,Trévoux,1,Ain,84,Auvergne-Rhône-Alpes
1428,1140,46.1146467438,4.86551696868,428,,Valeins,Valeins,1,Ain,84,Auvergne-Rhône-Alpes
1429,1660,46.217806795,5.08189056957,429,,Vandeins,Vandeins,1,Ain,84,Auvergne-Rhône-Alpes
1430,1160,46.0433928197,5.2947944594,430,,Varambon,Varambon,1,Ain,84,Auvergne-Rhône-Alpes
1431,1150,45.9201205456,5.36353184193,431,,Vaux-en-Bugey,Vaux-en-Bugey,1,Ain,84,Auvergne-Rhône-Alpes
1432,1270,46.3459093717,5.34853019646,432,,Verjon,Verjon,1,Ain,84,Auvergne-Rhône-Alpes
1433,1560,46.4848229774,5.10590413121,433,,Vernoux,Vernoux,1,Ain,84,Auvergne-Rhône-Alpes
1434,1330,45.9854373478,5.11204819151,434,,Versailleux,Versailleux,1,Ain,84,Auvergne-Rhône-Alpes
1435,1210,46.2997631425,6.10057952207,435,,Versonnex,Versonnex,1,Ain,84,Auvergne-Rhône-Alpes
1436,1170,46.3610768127,6.08470665475,436,,Vesancy,Vesancy,1,Ain,84,Auvergne-Rhône-Alpes
1437,1560,46.4743960759,5.02617426573,437,,Vescours,Vescours,1,Ain,84,Auvergne-Rhône-Alpes
1439,1570,46.3593397751,4.86265852202,439,,Vésines,Vésines,1,Ain,84,Auvergne-Rhône-Alpes
1441,1430,46.0853386653,5.54922100161,441,,Vieu-d'Izenave,Vieu-d'Izenave,1,Ain,84,Auvergne-Rhône-Alpes
1442,1260,45.8898392612,5.68999399947,442,,Vieu,Vieu,1,Ain,84,Auvergne-Rhône-Alpes
1443,1330,45.9927150222,5.04507856642,443,,Villars-les-Dombes,Villars-les-Dombes,1,Ain,84,Auvergne-Rhône-Alpes
1444,1150,45.8485624628,5.44711117486,444,,Villebois,Villebois,1,Ain,84,Auvergne-Rhône-Alpes
1445,1270,46.3458538978,5.31036160991,445,,Villemotier,Villemotier,1,Ain,84,Auvergne-Rhône-Alpes
1446,1480,46.0319048788,4.85182526102,446,,Villeneuve,Villeneuve,1,Ain,84,Auvergne-Rhône-Alpes
1447,1250,46.1926750369,5.3947679407,447,,Villereversure,Villereversure,1,Ain,84,Auvergne-Rhône-Alpes
1448,1200,46.0954293058,5.7569250415,448,,Villes,Villes,1,Ain,84,Auvergne-Rhône-Alpes
1449,1320,46.0099989032,5.25214547187,449,,Villette-sur-Ain,Villette-sur-Ain,1,Ain,84,Auvergne-Rhône-Alpes
1450,1800,45.932014998,5.22953071636,450,,Villieu-Loyes-Mollon,Villieu-Loyes-Mollon,1,Ain,84,Auvergne-Rhône-Alpes
1450,1800,45.932014998,5.22953071636,450,,Villieu-Loyes-Mollon,Villieu-Loyes-Mollon,1,Ain,84,Auvergne-Rhône-Alpes
1450,1800,45.932014998,5.22953071636,450,,Villieu-Loyes-Mollon,Villieu-Loyes-Mollon,1,Ain,84,Auvergne-Rhône-Alpes
1451,1440,46.2508985632,5.22302249216,451,,Viriat,Viriat,1,Ain,84,Auvergne-Rhône-Alpes
1452,1510,45.8464417872,5.63971940347,452,,Virieu-le-Grand,Virieu-le-Grand,1,Ain,84,Auvergne-Rhône-Alpes
1453,1260,45.9063608209,5.73707051523,453,,Virieu-le-Petit,Virieu-le-Petit,1,Ain,84,Auvergne-Rhône-Alpes
1454,1300,45.7267387762,5.71282330936,454,,Virignin,Virignin,1,Ain,84,Auvergne-Rhône-Alpes
1456,1350,45.8129059524,5.72536666767,456,,Vongnes,Vongnes,1,Ain,84,Auvergne-Rhône-Alpes
1457,1540,46.2168871367,4.99744373712,457,,Vonnas,Vonnas,1,Ain,84,Auvergne-Rhône-Alpes
2001,2300,49.5991518653,3.17708232927,1,,Abbécourt,Abbécourt,2,Aisne,32,Hauts-de-France
2002,2800,49.6936187791,3.39735632148,2,,Achery,Achery,2,Aisne,32,Hauts-de-France
2003,2200,49.3471963534,3.41817609834,3,,Acy,Acy,2,Aisne,32,Hauts-de-France
2004,2340,49.7166573626,3.96043211816,4,,Agnicourt-et-Séchelles,Agnicourt-et-Séchelles,2,Aisne,32,Hauts-de-France
2005,2190,49.393650796,3.96803679426,5,,Aguilcourt,Aguilcourt,2,Aisne,32,Hauts-de-France
2006,2110,49.930148162,3.51120205593,6,,Aisonville-et-Bernoville,Aisonville-et-Bernoville,2,Aisne,32,Hauts-de-France
2007,2820,49.4848002918,3.81870255331,7,,Aizelles,Aizelles,2,Aisne,32,Hauts-de-France
2008,2370,49.4384256824,3.51149185429,8,,Aizy-Jouy,Aizy-Jouy,2,Aisne,32,Hauts-de-France
2008,2370,49.4384256824,3.51149185429,8,,Aizy-Jouy,Aizy-Jouy,2,Aisne,32,Hauts-de-France
2009,2240,49.7667120841,3.36639043616,9,,Alaincourt,Alaincourt,2,Aisne,32,Hauts-de-France
2010,2320,49.4624440593,3.45394275872,10,,Allemant,Allemant,2,Aisne,32,Hauts-de-France
2011,2290,49.3762672939,3.18334679178,11,,Ambleny,Ambleny,2,Aisne,32,Hauts-de-France
2012,2200,49.3215250088,3.40362196255,12,,Ambrief,Ambrief,2,Aisne,32,Hauts-de-France
2013,2190,49.498787026,3.92278993322,13,,Amifontaine,Amifontaine,2,Aisne,32,Hauts-de-France
2014,2700,49.6108275885,3.30289341579,14,,Amigny-Rouy,Amigny-Rouy,2,Aisne,32,Hauts-de-France
2015,2600,49.2186389559,3.20808809779,15,,Ancienville,Ancienville,2,Aisne,32,Hauts-de-France
2016,2800,49.6411808161,3.3695440898,16,,Andelain,Andelain,2,Aisne,32,Hauts-de-France
2017,2800,49.6940879195,3.42823182437,17,,Anguilcourt-le-Sart,Anguilcourt-le-Sart,2,Aisne,32,Hauts-de-France
2018,2320,49.5045058305,3.43129584952,18,,Anizy-le-Château,Anizy-le-Château,2,Aisne,32,Hauts-de-France
2019,2480,49.7210674108,3.17611501401,19,,Annois,Annois,2,Aisne,32,Hauts-de-France
2020,2500,49.8823706752,4.22351346907,20,,Any-Martin-Rieux,Any-Martin-Rieux,2,Aisne,32,Hauts-de-France
2021,2360,49.744126618,4.11908765808,21,,Archon,Archon,2,Aisne,32,Hauts-de-France
2022,2130,49.2548799371,3.47829076337,22,,Arcy-Sainte-Restitue,Arcy-Sainte-Restitue,2,Aisne,32,Hauts-de-France
2022,2130,49.2548799371,3.47829076337,22,,Arcy-Sainte-Restitue,Arcy-Sainte-Restitue,2,Aisne,32,Hauts-de-France
2023,2210,49.1734232511,3.38789647903,23,,Armentières-sur-Ourcq,Armentières-sur-Ourcq,2,Aisne,32,Hauts-de-France
2024,2860,49.4989016398,3.7647230005,24,,Arrancy,Arrancy,2,Aisne,32,Hauts-de-France
2025,2480,49.7617999337,3.19725095546,25,,Artemps,Artemps,2,Aisne,32,Hauts-de-France
2027,2270,49.6803739117,3.55491692691,27,,Assis-sur-Serre,Assis-sur-Serre,2,Aisne,32,Hauts-de-France
2028,2840,49.5757750686,3.69006632109,28,,Athies-sous-Laon,Athies-sous-Laon,2,Aisne,32,Hauts-de-France
2029,2490,49.8554489068,3.15363305662,29,,Attilly,Attilly,2,Aisne,32,Hauts-de-France
2030,2420,50.0239903854,3.26103215604,30,,Aubencheul-aux-Bois,Aubencheul-aux-Bois,2,Aisne,32,Hauts-de-France
2031,2500,49.8252306759,4.19066939985,31,,Aubenton,Aubenton,2,Aisne,32,Hauts-de-France
2032,2590,49.7721524634,3.1192565988,32,,Aubigny-aux-Kaisnes,Aubigny-aux-Kaisnes,2,Aisne,32,Hauts-de-France
2033,2820,49.4968821185,3.79282850765,33,,Aubigny-en-Laonnois,Aubigny-en-Laonnois,2,Aisne,32,Hauts-de-France
2034,2300,49.4777157214,3.12718502825,34,,Audignicourt,Audignicourt,2,Aisne,32,Hauts-de-France
2035,2120,49.8660645425,3.6312599901,35,,Audigny,Audigny,2,Aisne,32,Hauts-de-France
2036,2220,49.340063724,3.5110198819,36,,Augy,Augy,2,Aisne,32,Hauts-de-France
2037,2000,49.6198117499,3.60981962105,37,,Aulnois-sous-Laon,Aulnois-sous-Laon,2,Aisne,32,Hauts-de-France
2038,2360,49.7608855336,4.22422505762,38,Les,Autels,Les Autels,2,Aisne,32,Hauts-de-France
2039,2250,49.7051244442,3.79419867292,39,,Autremencourt,Autremencourt,2,Aisne,32,Hauts-de-France
2040,2580,49.8969849321,3.85601033505,40,,Autreppes,Autreppes,2,Aisne,32,Hauts-de-France
2041,2300,49.5860875305,3.23602708427,41,,Autreville,Autreville,2,Aisne,32,Hauts-de-France
2042,2400,49.0039701095,3.35913214045,42,,Azy-sur-Marne,Azy-sur-Marne,2,Aisne,32,Hauts-de-France
2043,2290,49.4601139731,3.27945330014,43,,Bagneux,Bagneux,2,Aisne,32,Hauts-de-France
2044,2140,49.7978711595,4.03669866073,44,,Bancigny,Bancigny,2,Aisne,32,Hauts-de-France
2046,2000,49.6218589779,3.66103056579,46,,Barenton-Bugny,Barenton-Bugny,2,Aisne,32,Hauts-de-France
2047,2000,49.6477517259,3.64469997459,47,,Barenton-Cel,Barenton-Cel,2,Aisne,32,Hauts-de-France
2048,2270,49.66833977,3.68940610952,48,,Barenton-sur-Serre,Barenton-sur-Serre,2,Aisne,32,Hauts-de-France
2049,2700,49.577979369,3.32804487461,49,,Barisis-aux-Bois,Barisis-aux-Bois,2,Aisne,32,Hauts-de-France
2050,2170,50.0395375873,3.74901595409,50,,Barzy-en-Thiérache,Barzy-en-Thiérache,2,Aisne,32,Hauts-de-France
2051,2850,49.0906196202,3.56214117254,51,,Barzy-sur-Marne,Barzy-sur-Marne,2,Aisne,32,Hauts-de-France
2052,2380,49.5332813699,3.38492604839,52,,Bassoles-Aulers,Bassoles-Aulers,2,Aisne,32,Hauts-de-France
2053,2330,48.9896915811,3.60486686026,53,,Vallées en Champagne,Vallées en Champagne,2,Aisne,32,Hauts-de-France
2053,2330,48.9896915811,3.60486686026,53,,Vallées en Champagne,Vallées en Champagne,2,Aisne,32,Hauts-de-France
2053,2330,48.9896915811,3.60486686026,53,,Vallées en Champagne,Vallées en Champagne,2,Aisne,32,Hauts-de-France
2054,2220,49.3070586788,3.61583126589,54,,Bazoches-sur-Vesles,Bazoches-sur-Vesles,2,Aisne,32,Hauts-de-France
2055,2500,49.8211281836,4.15200066545,55,,Beaumé,Beaumé,2,Aisne,32,Hauts-de-France
2056,2300,49.6874633882,3.13133369335,56,,Beaumont-en-Beine,Beaumont-en-Beine,2,Aisne,32,Hauts-de-France
2057,2110,49.9965608612,3.32970842537,57,,Beaurevoir,Beaurevoir,2,Aisne,32,Hauts-de-France
2058,2160,49.402806797,3.75287161991,58,,Beaurieux,Beaurieux,2,Aisne,32,Hauts-de-France
2059,2800,49.648319958,3.33811188104,59,,Beautor,Beautor,2,Aisne,32,Hauts-de-France
2060,2590,49.8339921767,3.10282045546,60,,Beauvois-en-Vermandois,Beauvois-en-Vermandois,2,Aisne,32,Hauts-de-France
2061,2110,50.0158703814,3.45898644538,61,,Becquigny,Becquigny,2,Aisne,32,Hauts-de-France
2062,2400,49.0829128265,3.30049173293,62,,Belleau,Belleau,2,Aisne,32,Hauts-de-France
2063,2420,49.9261057081,3.2441994692,63,,Bellenglise,Bellenglise,2,Aisne,32,Hauts-de-France
2064,2200,49.3567574344,3.34051688283,64,,Belleu,Belleu,2,Aisne,32,Hauts-de-France
2065,2420,49.9592991729,3.23020850852,65,,Bellicourt,Bellicourt,2,Aisne,32,Hauts-de-France
2066,2440,49.755094123,3.30909898139,66,,Benay,Benay,2,Aisne,32,Hauts-de-France
2067,2450,50.0294686238,3.711371001,67,,Bergues-sur-Sambre,Bergues-sur-Sambre,2,Aisne,32,Hauts-de-France
2068,2250,49.7808533631,3.75710714699,68,,Berlancourt,Berlancourt,2,Aisne,32,Hauts-de-France
2069,2340,49.6622290606,4.11314086897,69,,Berlise,Berlise,2,Aisne,32,Hauts-de-France
2070,2120,49.8793651304,3.48665456392,70,,Bernot,Bernot,2,Aisne,32,Hauts-de-France
2071,2290,49.4113288887,3.14975272702,71,,Berny-Rivière,Berny-Rivière,2,Aisne,32,Hauts-de-France
2072,2820,49.4823563962,3.8521031839,72,,Berrieux,Berrieux,2,Aisne,32,Hauts-de-France
2073,2190,49.4084985083,3.8985497785,73,,Berry-au-Bac,Berry-au-Bac,2,Aisne,32,Hauts-de-France
2074,2800,49.6276056573,3.39748988886,74,,Bertaucourt-Epourdon,Bertaucourt-Epourdon,2,Aisne,32,Hauts-de-France
2075,2240,49.7788058177,3.37247241058,75,,Berthenicourt,Berthenicourt,2,Aisne,32,Hauts-de-France
2076,2190,49.3975285682,4.01146178698,76,,Bertricourt,Bertricourt,2,Aisne,32,Hauts-de-France
2077,2200,49.3172125296,3.29666086699,77,,Berzy-le-Sec,Berzy-le-Sec,2,Aisne,32,Hauts-de-France
2078,2300,49.5341682819,3.16474171361,78,,Besmé,Besmé,2,Aisne,32,Hauts-de-France
2079,2500,49.823361306,4.11768907822,79,,Besmont,Besmont,2,Aisne,32,Hauts-de-France
2080,2870,49.5928792816,3.57657238799,80,,Besny-et-Loizy,Besny-et-Loizy,2,Aisne,32,Hauts-de-France
2081,2300,49.6290547772,3.14064657935,81,,Béthancourt-en-Vaux,Béthancourt-en-Vaux,2,Aisne,32,Hauts-de-France
2082,2210,49.2275759309,3.41647403702,82,,Beugneux,Beugneux,2,Aisne,32,Hauts-de-France
2083,2130,49.1308547007,3.49165019107,83,,Beuvardes,Beuvardes,2,Aisne,32,Hauts-de-France
2084,2310,49.0102591835,3.22764610411,84,,Bézu-le-Guéry,Bézu-le-Guéry,2,Aisne,32,Hauts-de-France
2085,2400,49.1046732888,3.40812513224,85,,Bézu-Saint-Germain,Bézu-Saint-Germain,2,Aisne,32,Hauts-de-France
2086,2300,49.578776546,3.21263017443,86,,Bichancourt,Bichancourt,2,Aisne,32,Hauts-de-France
2087,2290,49.4476050585,3.26985890807,87,,Bieuxy,Bieuxy,2,Aisne,32,Hauts-de-France
2088,2860,49.4921822965,3.7137356904,88,,Bièvres,Bièvres,2,Aisne,32,Hauts-de-France
2089,2200,49.3556556532,3.37609947556,89,,Billy-sur-Aisne,Billy-sur-Aisne,2,Aisne,32,Hauts-de-France
2090,2210,49.2215032882,3.29903267663,90,,Billy-sur-Ourcq,Billy-sur-Ourcq,2,Aisne,32,Hauts-de-France
2091,2160,49.3372673738,3.671868408,91,,Blanzy-lès-Fismes,Blanzy-lès-Fismes,2,Aisne,32,Hauts-de-France
2093,2300,49.5076223945,3.15179502187,93,,Blérancourt,Blérancourt,2,Aisne,32,Hauts-de-France
2094,2400,49.0264919363,3.46405474705,94,,Blesmes,Blesmes,2,Aisne,32,Hauts-de-France
2095,2110,49.989032874,3.46522354976,95,,Bohain-en-Vermandois,Bohain-en-Vermandois,2,Aisne,32,Hauts-de-France
2096,2270,49.7369350689,3.65414834535,96,,Bois-lès-Pargny,Bois-lès-Pargny,2,Aisne,32,Hauts-de-France
2097,2350,49.6264861998,3.956447719,97,,Boncourt,Boncourt,2,Aisne,32,Hauts-de-France
2098,2400,49.0082419817,3.3459478468,98,,Bonneil,Bonneil,2,Aisne,32,Hauts-de-France
2099,2400,49.1264049496,3.32541661771,99,,Bonnesvalyn,Bonnesvalyn,2,Aisne,32,Hauts-de-France
2100,2420,49.9908643724,3.22116002448,100,,Bony,Bony,2,Aisne,32,Hauts-de-France
2101,2250,49.7390653213,3.86733568391,101,,Bosmont-sur-Serre,Bosmont-sur-Serre,2,Aisne,32,Hauts-de-France
2102,2860,49.4606212957,3.75658607824,102,,Bouconville-Vauclair,Bouconville-Vauclair,2,Aisne,32,Hauts-de-France
2103,2450,50.0114554001,3.71432024852,103,,Boué,Boué,2,Aisne,32,Hauts-de-France
2104,2160,49.3788374998,3.84626014622,104,,Bouffignereux,Bouffignereux,2,Aisne,32,Hauts-de-France
2105,2400,49.0671787396,3.31728226934,105,,Bouresches,Bouresches,2,Aisne,32,Hauts-de-France
2106,2160,49.4022354002,3.65944342757,106,,Bourg-et-Comin,Bourg-et-Comin,2,Aisne,32,Hauts-de-France
2107,2300,49.5427641575,3.15422957657,107,,Bourguignon-sous-Coucy,Bourguignon-sous-Coucy,2,Aisne,32,Hauts-de-France
2108,2000,49.5288056883,3.53777236106,108,,Bourguignon-sous-Montbavin,Bourguignon-sous-Montbavin,2,Aisne,32,Hauts-de-France
2109,2140,49.8778828965,3.96243530235,109,La,Bouteille,La Bouteille,2,Aisne,32,Hauts-de-France
2110,2220,49.3484719318,3.53596629744,110,,Braine,Braine,2,Aisne,32,Hauts-de-France
2111,2320,49.5176286609,3.41282321335,111,,Brancourt-en-Laonnois,Brancourt-en-Laonnois,2,Aisne,32,Hauts-de-France
2112,2110,49.98081057,3.39391192109,112,,Brancourt-le-Grand,Brancourt-le-Grand,2,Aisne,32,Hauts-de-France
2114,2400,49.0567927241,3.42453409652,114,,Brasles,Brasles,2,Aisne,32,Hauts-de-France
2115,2000,49.4375773374,3.60977976284,115,,Braye-en-Laonnois,Braye-en-Laonnois,2,Aisne,32,Hauts-de-France
2116,2140,49.7675470994,3.96265841899,116,,Braye-en-Thiérache,Braye-en-Thiérache,2,Aisne,32,Hauts-de-France
2117,2480,49.7746700975,3.14070965091,117,,Bray-Saint-Christophe,Bray-Saint-Christophe,2,Aisne,32,Hauts-de-France
2118,2880,49.4221361409,3.37829006511,118,,Braye,Braye,2,Aisne,32,Hauts-de-France
2119,2210,49.1398626041,3.42373097034,119,,Brécy,Brécy,2,Aisne,32,Hauts-de-France
2120,2220,49.3680052078,3.5442035574,120,,Brenelle,Brenelle,2,Aisne,32,Hauts-de-France
2121,2210,49.1842783438,3.34972495405,121,,Breny,Breny,2,Aisne,32,Hauts-de-France
2122,2870,49.5973962294,3.4733634659,122,,Brie,Brie,2,Aisne,32,Hauts-de-France
2123,2240,49.7228299725,3.39639768252,123,,Brissay-Choigny,Brissay-Choigny,2,Aisne,32,Hauts-de-France
2124,2240,49.7432786375,3.39968837909,124,,Brissy-Hamégicourt,Brissy-Hamégicourt,2,Aisne,32,Hauts-de-France
2125,2810,49.1103074474,3.15291445147,125,,Brumetz,Brumetz,2,Aisne,32,Hauts-de-France
2126,2360,49.7718100626,4.18649398572,126,,Brunehamel,Brunehamel,2,Aisne,32,Hauts-de-France
2127,2130,49.1996571467,3.44535846468,127,,Bruyères-sur-Fère,Bruyères-sur-Fère,2,Aisne,32,Hauts-de-France
2128,2860,49.5239615523,3.66954693798,128,,Bruyères-et-Montbérault,Bruyères-et-Montbérault,2,Aisne,32,Hauts-de-France
2129,2220,49.2621681637,3.56863439754,129,,Bruys,Bruys,2,Aisne,32,Hauts-de-France
2130,2500,49.8658103548,4.09323369949,130,,Bucilly,Bucilly,2,Aisne,32,Hauts-de-France
2131,2880,49.3884447185,3.39828602712,131,,Bucy-le-Long,Bucy-le-Long,2,Aisne,32,Hauts-de-France
2132,2870,49.5790852566,3.496908306,132,,Bucy-lès-Cerny,Bucy-lès-Cerny,2,Aisne,32,Hauts-de-France
2133,2350,49.6467998089,3.90358311553,133,,Bucy-lès-Pierrepont,Bucy-lès-Pierrepont,2,Aisne,32,Hauts-de-France
2134,2500,49.9070296259,4.05674542304,134,,Buire,Buire,2,Aisne,32,Hauts-de-France
2135,2620,49.9577111138,3.838016082,135,,Buironfosse,Buironfosse,2,Aisne,32,Hauts-de-France
2136,2140,49.7687046874,3.91196369709,136,,Burelles,Burelles,2,Aisne,32,Hauts-de-France
2137,2810,49.0765910572,3.25026191909,137,,Bussiares,Bussiares,2,Aisne,32,Hauts-de-France
2138,2200,49.3099528163,3.3478744079,138,,Buzancy,Buzancy,2,Aisne,32,Hauts-de-France
2139,2300,49.6176055636,3.12169527347,139,,Caillouël-Crépigny,Caillouël-Crépigny,2,Aisne,32,Hauts-de-France
2140,2300,49.5205248253,3.12854853594,140,,Camelin,Camelin,2,Aisne,32,Hauts-de-France
2140,2300,49.5205248253,3.12854853594,140,,Camelin,Camelin,2,Aisne,32,Hauts-de-France
2141,2260,49.9732109539,3.91398483546,141,La,Capelle,La Capelle,2,Aisne,32,Hauts-de-France
2142,2680,49.8013894137,3.25325245088,142,,Castres,Castres,2,Aisne,32,Hauts-de-France
2143,2420,50.0009779444,3.2423098464,143,Le,Catelet,Le Catelet,2,Aisne,32,Hauts-de-France
2144,2490,49.864658382,3.11126489473,144,,Caulaincourt,Caulaincourt,2,Aisne,32,Hauts-de-France
2145,2300,49.6372659106,3.17347612819,145,,Caumont,Caumont,2,Aisne,32,Hauts-de-France
2146,2330,49.0148161041,3.57007423847,146,,Celles-lès-Condé,Celles-lès-Condé,2,Aisne,32,Hauts-de-France
2148,2370,49.4159264546,3.47446927431,148,,Celles-sur-Aisne,Celles-sur-Aisne,2,Aisne,32,Hauts-de-France
2149,2240,49.7670333979,3.33255021354,149,,Cerizy,Cerizy,2,Aisne,32,Hauts-de-France
2150,2860,49.4500150087,3.67982439455,150,,Cerny-en-Laonnois,Cerny-en-Laonnois,2,Aisne,32,Hauts-de-France
2151,2870,49.5778658953,3.54646763896,151,,Cerny-lès-Bucy,Cerny-lès-Bucy,2,Aisne,32,Hauts-de-France
2152,2220,49.324784775,3.51746919082,152,,Cerseuil,Cerseuil,2,Aisne,32,Hauts-de-France
2153,2320,49.5595788079,3.50190405701,153,,Cessières,Cessières,2,Aisne,32,Hauts-de-France
2154,2200,49.3002009035,3.39759102537,154,,Chacrise,Chacrise,2,Aisne,32,Hauts-de-France
2155,2000,49.5081654549,3.52234605948,155,,Chaillevois,Chaillevois,2,Aisne,32,Hauts-de-France
2156,2270,49.6702675165,3.64445509533,156,,Chalandry,Chalandry,2,Aisne,32,Hauts-de-France
2157,2000,49.5986366056,3.67200832611,157,,Chambry,Chambry,2,Aisne,32,Hauts-de-France
2158,2860,49.4720646954,3.67062673062,158,,Chamouille,Chamouille,2,Aisne,32,Hauts-de-France
2159,2670,49.5434967943,3.2618311238,159,,Champs,Champs,2,Aisne,32,Hauts-de-France
2160,2340,49.7007898116,3.98562292281,160,,Chaourse,Chaourse,2,Aisne,32,Hauts-de-France
2162,2570,48.9492049177,3.37662807022,162,La,Chapelle-sur-Chézy,La Chapelle-sur-Chézy,2,Aisne,32,Hauts-de-France
2163,2310,48.9898678258,3.29365157876,163,,Charly-sur-Marne,Charly-sur-Marne,2,Aisne,32,Hauts-de-France
2164,2850,49.1121866037,3.54125960951,164,Le,Charmel,Le Charmel,2,Aisne,32,Hauts-de-France
2165,2800,49.6508532429,3.38525104222,165,,Charmes,Charmes,2,Aisne,32,Hauts-de-France
2166,2400,49.0898127369,3.50871838479,166,,Chartèves,Chartèves,2,Aisne,32,Hauts-de-France
2167,2370,49.3783410842,3.50271467967,167,,Chassemy,Chassemy,2,Aisne,32,Hauts-de-France
2168,2400,49.0564070801,3.38160004843,168,,Château-Thierry,Château-Thierry,2,Aisne,32,Hauts-de-France
2169,2270,49.7618503091,3.70312508858,169,,Châtillon-lès-Sons,Châtillon-lès-Sons,2,Aisne,32,Hauts-de-France
2170,2240,49.7938161671,3.41630401708,170,,Châtillon-sur-Oise,Châtillon-sur-Oise,2,Aisne,32,Hauts-de-France
2171,2160,49.3962562981,3.78942153696,171,,Chaudardes,Chaudardes,2,Aisne,32,Hauts-de-France
2172,2200,49.3150223009,3.25276338247,172,,Chaudun,Chaudun,2,Aisne,32,Hauts-de-France
2173,2300,49.619880673,3.21875355041,173,,Chauny,Chauny,2,Aisne,32,Hauts-de-France
2174,2000,49.4794437147,3.51936895626,174,,Chavignon,Chavignon,2,Aisne,32,Hauts-de-France
2175,2880,49.4232730431,3.30567490669,175,,Chavigny,Chavigny,2,Aisne,32,Hauts-de-France
2176,2370,49.4073162185,3.56243209622,176,,Chavonne,Chavonne,2,Aisne,32,Hauts-de-France
2177,2860,49.5141661683,3.68718851388,177,,Chérêt,Chérêt,2,Aisne,32,Hauts-de-France
2178,2860,49.4629888139,3.71995479046,178,,Chermizy-Ailles,Chermizy-Ailles,2,Aisne,32,Hauts-de-France
2179,2220,49.2556867214,3.60484629397,179,,Chéry-Chartreuve,Chéry-Chartreuve,2,Aisne,32,Hauts-de-France
2180,2000,49.6488389918,3.59416271271,180,,Chéry-lès-Pouilly,Chéry-lès-Pouilly,2,Aisne,32,Hauts-de-France
2181,2360,49.7222192886,4.1011989282,181,,Chéry-lès-Rozoy,Chéry-lès-Rozoy,2,Aisne,32,Hauts-de-France
2182,2250,49.818366417,3.7371313317,182,,Chevennes,Chevennes,2,Aisne,32,Hauts-de-France
2183,2000,49.4661009452,3.59365333616,183,,Chevregny,Chevregny,2,Aisne,32,Hauts-de-France
2184,2270,49.7616780422,3.5837583969,184,,Chevresis-Monceau,Chevresis-Monceau,2,Aisne,32,Hauts-de-France
2185,2810,49.1268031885,3.16759094422,185,,Chézy-en-Orxois,Chézy-en-Orxois,2,Aisne,32,Hauts-de-France
2186,2570,48.983996655,3.38226485102,186,,Chézy-sur-Marne,Chézy-sur-Marne,2,Aisne,32,Hauts-de-France
2187,2400,49.035155356,3.43302324278,187,,Chierry,Chierry,2,Aisne,32,Hauts-de-France
2188,2120,49.9298846139,3.77489645427,188,,Chigny,Chigny,2,Aisne,32,Hauts-de-France
2189,2350,49.6268606782,3.85603255601,189,,Chivres-en-Laonnois,Chivres-en-Laonnois,2,Aisne,32,Hauts-de-France
2190,2880,49.4029298198,3.43836038727,190,,Chivres-Val,Chivres-Val,2,Aisne,32,Hauts-de-France
2191,2000,49.5326303582,3.58562168803,191,,Chivy-lès-Étouvelles,Chivy-lès-Étouvelles,2,Aisne,32,Hauts-de-France
2192,2210,49.2167334121,3.24708004454,192,,Chouy,Chouy,2,Aisne,32,Hauts-de-France
2193,2130,49.1648316775,3.60411788847,193,,Cierges,Cierges,2,Aisne,32,Hauts-de-France
2194,2250,49.7490011958,3.84000022806,194,,Cilly,Cilly,2,Aisne,32,Hauts-de-France
2195,2220,49.3674868367,3.46778299062,195,,Ciry-Salsogne,Ciry-Salsogne,2,Aisne,32,Hauts-de-France
2196,2000,49.5524137158,3.56557185412,196,,Clacy-et-Thierret,Clacy-et-Thierret,2,Aisne,32,Hauts-de-France
2197,2260,49.9739945177,3.98660655282,197,,Clairfontaine,Clairfontaine,2,Aisne,32,Hauts-de-France
2198,2880,49.4281077825,3.36378754787,198,,Clamecy,Clamecy,2,Aisne,32,Hauts-de-France
2199,2440,49.7488769741,3.2302033407,199,,Clastres,Clastres,2,Aisne,32,Hauts-de-France
2200,2340,49.6601654327,3.94320327145,200,,Clermont-les-Fermes,Clermont-les-Fermes,2,Aisne,32,Hauts-de-France
2201,2600,49.3295432232,3.15290453511,201,,Cœuvres-et-Valsery,Cœuvres-et-Valsery,2,Aisne,32,Hauts-de-France
2203,2210,49.1632280955,3.43633795455,203,,Coincy,Coincy,2,Aisne,32,Hauts-de-France
2204,2360,49.7923246397,4.09591303887,204,,Coingt,Coingt,2,Aisne,32,Hauts-de-France
2205,2860,49.4666159338,3.63042181928,205,,Colligis-Crandelain,Colligis-Crandelain,2,Aisne,32,Hauts-de-France
2206,2120,49.8584586783,3.71138683561,206,,Colonfay,Colonfay,2,Aisne,32,Hauts-de-France
2207,2300,49.6416913377,3.15095437349,207,,Commenchon,Commenchon,2,Aisne,32,Hauts-de-France
2208,2160,49.3764478648,3.78830446161,208,,Concevreux,Concevreux,2,Aisne,32,Hauts-de-France
2209,2330,49.0016101753,3.56116999962,209,,Condé-en-Brie,Condé-en-Brie,2,Aisne,32,Hauts-de-France
2210,2370,49.4007552828,3.46571591087,210,,Condé-sur-Aisne,Condé-sur-Aisne,2,Aisne,32,Hauts-de-France
2211,2190,49.4138370327,3.94498449027,211,,Condé-sur-Suippe,Condé-sur-Suippe,2,Aisne,32,Hauts-de-France
2212,2700,49.6370236167,3.27726632135,212,,Condren,Condren,2,Aisne,32,Hauts-de-France
2213,2330,49.0359363932,3.53287282671,213,,Connigis,Connigis,2,Aisne,32,Hauts-de-France
2214,2680,49.7916934603,3.23428350737,214,,Contescourt,Contescourt,2,Aisne,32,Hauts-de-France
2215,2820,49.4620558975,3.82654082441,215,,Corbeny,Corbeny,2,Aisne,32,Hauts-de-France
2216,2600,49.2549892095,3.19724367023,216,,Corcy,Corcy,2,Aisne,32,Hauts-de-France
2217,2380,49.5159709578,3.31548892957,217,,Coucy-le-Château-Auffrique,Coucy-le-Château-Auffrique,2,Aisne,32,Hauts-de-France
2218,2840,49.5566159059,3.77716711865,218,,Coucy-lès-Eppes,Coucy-lès-Eppes,2,Aisne,32,Hauts-de-France
2219,2380,49.5405792355,3.34372156034,219,,Coucy-la-Ville,Coucy-la-Ville,2,Aisne,32,Hauts-de-France
2220,2130,49.1980463524,3.62776592985,220,,Coulonges-Cohan,Coulonges-Cohan,2,Aisne,32,Hauts-de-France
2220,2130,49.1980463524,3.62776592985,220,,Coulonges-Cohan,Coulonges-Cohan,2,Aisne,32,Hauts-de-France
2221,2310,49.0313536349,3.2743801467,221,,Coupru,Coupru,2,Aisne,32,Hauts-de-France
2222,2800,49.6815888779,3.46004834981,222,,Courbes,Courbes,2,Aisne,32,Hauts-de-France
2223,2330,48.9960917184,3.50690687861,223,,Courboin,Courboin,2,Aisne,32,Hauts-de-France
2224,2220,49.348025885,3.57684035869,224,,Courcelles-sur-Vesle,Courcelles-sur-Vesle,2,Aisne,32,Hauts-de-France
2225,2810,49.1164230809,3.26303714363,225,,Courchamps,Courchamps,2,Aisne,32,Hauts-de-France
2226,2200,49.3434328339,3.30199112892,226,,Courmelles,Courmelles,2,Aisne,32,Hauts-de-France
2227,2130,49.1377444173,3.57546880498,227,,Courmont,Courmont,2,Aisne,32,Hauts-de-France
2228,2850,49.0715288855,3.54168079771,228,,Courtemont-Varennes,Courtemont-Varennes,2,Aisne,32,Hauts-de-France
2229,2820,49.5140957547,3.79503800634,229,,Courtrizy-et-Fussigny,Courtrizy-et-Fussigny,2,Aisne,32,Hauts-de-France
2230,2220,49.3339841009,3.48486954064,230,,Couvrelles,Couvrelles,2,Aisne,32,Hauts-de-France
2231,2270,49.6458776473,3.52446684584,231,,Couvron-et-Aumencourt,Couvron-et-Aumencourt,2,Aisne,32,Hauts-de-France
2232,2600,49.2133089693,3.01306173751,232,,Coyolles,Coyolles,2,Aisne,32,Hauts-de-France
2233,2130,49.2285541737,3.45227303073,233,,Cramaille,Cramaille,2,Aisne,32,Hauts-de-France
2234,2160,49.4476368348,3.79203280761,234,,Craonne,Craonne,2,Aisne,32,Hauts-de-France
2235,2160,49.4254999308,3.77686483236,235,,Craonnelle,Craonnelle,2,Aisne,32,Hauts-de-France
2236,2380,49.4839031807,3.31195074309,236,,Crécy-au-Mont,Crécy-au-Mont,2,Aisne,32,Hauts-de-France
2237,2270,49.698624191,3.62256564798,237,,Crécy-sur-Serre,Crécy-sur-Serre,2,Aisne,32,Hauts-de-France
2238,2870,49.6082534854,3.5125070585,238,,Crépy,Crépy,2,Aisne,32,Hauts-de-France
2239,2650,49.0428713757,3.51138201699,239,,Crézancy,Crézancy,2,Aisne,32,Hauts-de-France
2240,2110,49.9306761102,3.39430326005,240,,Croix-Fonsomme,Croix-Fonsomme,2,Aisne,32,Hauts-de-France
2241,2210,49.1598010602,3.35048905306,241,La,Croix-sur-Ourcq,La Croix-sur-Ourcq,2,Aisne,32,Hauts-de-France
2242,2310,48.9791200153,3.24757642131,242,,Crouttes-sur-Marne,Crouttes-sur-Marne,2,Aisne,32,Hauts-de-France
2243,2880,49.4078535405,3.36640020468,243,,Crouy,Crouy,2,Aisne,32,Hauts-de-France
2244,2120,49.9313828796,3.75249198254,244,,Crupilly,Crupilly,2,Aisne,32,Hauts-de-France
2245,2880,49.4081126802,3.32236958826,245,,Cuffies,Cuffies,2,Aisne,32,Hauts-de-France
2246,2480,49.7031009123,3.15424498862,246,,Cugny,Cugny,2,Aisne,32,Hauts-de-France
2248,2350,49.6834404265,3.81994750866,248,,Cuirieux,Cuirieux,2,Aisne,32,Hauts-de-France
2249,2220,49.2904033438,3.48843248507,249,,Cuiry-Housse,Cuiry-Housse,2,Aisne,32,Hauts-de-France
2250,2160,49.3897631676,3.76227512623,250,,Cuiry-lès-Chaudardes,Cuiry-lès-Chaudardes,2,Aisne,32,Hauts-de-France
2251,2360,49.7661751176,4.10397751712,251,,Cuiry-lès-Iviers,Cuiry-lès-Iviers,2,Aisne,32,Hauts-de-France
2252,2160,49.4034575347,3.70612307803,252,,Cuissy-et-Geny,Cuissy-et-Geny,2,Aisne,32,Hauts-de-France
2253,2200,49.4207417064,3.24887510168,253,,Cuisy-en-Almont,Cuisy-en-Almont,2,Aisne,32,Hauts-de-France
2254,2600,49.3442753875,3.19127169549,254,,Cutry,Cutry,2,Aisne,32,Hauts-de-France
2255,2220,49.3837163848,3.57235420125,255,,Cys-la-Commune,Cys-la-Commune,2,Aisne,32,Hauts-de-France
2256,2140,49.7690562311,4.04218248631,256,,Dagny-Lambercy,Dagny-Lambercy,2,Aisne,32,Hauts-de-France
2257,2680,49.8240617542,3.23031219742,257,,Dallon,Dallon,2,Aisne,32,Hauts-de-France
2258,2470,49.1470522556,3.17719709632,258,,Dammard,Dammard,2,Aisne,32,Hauts-de-France
2259,2600,49.2414407733,3.14413128827,259,,Dampleux,Dampleux,2,Aisne,32,Hauts-de-France
2260,2800,49.6665738585,3.40089557013,260,,Danizy,Danizy,2,Aisne,32,Hauts-de-France
2261,2270,49.709705981,3.68499803784,261,,Dercy,Dercy,2,Aisne,32,Hauts-de-France
2262,2700,49.6285991184,3.36051598302,262,,Deuillet,Deuillet,2,Aisne,32,Hauts-de-France
2263,2220,49.3602201297,3.61487590771,263,,Dhuizel,Dhuizel,2,Aisne,32,Hauts-de-France
2264,2340,49.6355575735,4.01312880234,264,,Dizy-le-Gros,Dizy-le-Gros,2,Aisne,32,Hauts-de-France
2265,2360,49.7667554096,4.14178746545,265,,Dohis,Dohis,2,Aisne,32,Hauts-de-France
2266,2360,49.7338298517,4.08637882793,266,,Dolignon,Dolignon,2,Aisne,32,Hauts-de-France
2267,2600,49.3290731499,3.21634686939,267,,Dommiers,Dommiers,2,Aisne,32,Hauts-de-France
2268,2310,49.0156995656,3.27296497779,268,,Domptin,Domptin,2,Aisne,32,Hauts-de-France
2269,2450,49.9652064178,3.7033753973,269,,Dorengt,Dorengt,2,Aisne,32,Hauts-de-France
2270,2590,49.7940905147,3.13035849025,270,,Douchy,Douchy,2,Aisne,32,Hauts-de-France
2271,2130,49.2391906053,3.64128453803,271,,Dravegny,Dravegny,2,Aisne,32,Hauts-de-France
2272,2210,49.2773564352,3.38965007811,272,,Droizy,Droizy,2,Aisne,32,Hauts-de-France
2273,2480,49.751235296,3.13377121735,273,,Dury,Dury,2,Aisne,32,Hauts-de-France
2274,2350,49.6781110152,3.88259465732,274,,Ébouleau,Ébouleau,2,Aisne,32,Hauts-de-France
2275,2500,49.9191180654,3.98790173223,275,,Effry,Effry,2,Aisne,32,Hauts-de-France
2276,2260,49.9258825845,3.80718694445,276,,Englancourt,Englancourt,2,Aisne,32,Hauts-de-France
2277,2290,49.471791053,3.25384432012,277,,Épagny,Épagny,2,Aisne,32,Hauts-de-France
2278,2500,49.8861370225,4.0702371205,278,,Éparcy,Éparcy,2,Aisne,32,Hauts-de-France
2279,2400,49.1029988371,3.35359350285,279,,Épaux-Bézu,Épaux-Bézu,2,Aisne,32,Hauts-de-France
2280,2400,49.1045180167,3.45072347386,280,,Épieds,Épieds,2,Aisne,32,Hauts-de-France
2281,2540,48.8992804015,3.44384138078,281,L',Épine-aux-Bois,L'Épine-aux-Bois,2,Aisne,32,Hauts-de-France
2282,2840,49.5523855068,3.73980858367,282,,Eppes,Eppes,2,Aisne,32,Hauts-de-France
2283,2250,49.7348278249,3.70534450333,283,,Erlon,Erlon,2,Aisne,32,Hauts-de-France
2284,2260,49.9195909244,3.83764920476,284,,Erloy,Erloy,2,Aisne,32,Hauts-de-France
2286,2170,49.9822300914,3.75309920982,286,,Esquéhéries,Esquéhéries,2,Aisne,32,Hauts-de-France
2287,2690,49.7740780116,3.27214459324,287,,Essigny-le-Grand,Essigny-le-Grand,2,Aisne,32,Hauts-de-France
2288,2100,49.8961825414,3.36742260207,288,,Essigny-le-Petit,Essigny-le-Petit,2,Aisne,32,Hauts-de-France
2289,2570,48.9666904843,3.41396491705,289,,Essises,Essises,2,Aisne,32,Hauts-de-France
2290,2400,49.0341132047,3.34014174183,290,,Essômes-sur-Marne,Essômes-sur-Marne,2,Aisne,32,Hauts-de-France
2291,2420,49.9705842912,3.2801536166,291,,Estrées,Estrées,2,Aisne,32,Hauts-de-France
2292,2400,49.0317558536,3.41777664616,292,,Étampes-sur-Marne,Étampes-sur-Marne,2,Aisne,32,Hauts-de-France
2293,2110,49.9310354275,3.45081301205,293,,Étaves-et-Bocquiaux,Étaves-et-Bocquiaux,2,Aisne,32,Hauts-de-France
2294,2000,49.5186450995,3.58156180986,294,,Étouvelles,Étouvelles,2,Aisne,32,Hauts-de-France
2295,2580,49.8962633822,3.92348915288,295,,Étréaupont,Étréaupont,2,Aisne,32,Hauts-de-France
2296,2590,49.8325776228,3.15800068609,296,,Étreillers,Étreillers,2,Aisne,32,Hauts-de-France
2297,2400,49.0822681369,3.34802063568,297,,Étrépilly,Étrépilly,2,Aisne,32,Hauts-de-France
2298,2510,49.9996010721,3.65890491685,298,,Étreux,Étreux,2,Aisne,32,Hauts-de-France
2299,2190,49.4564306975,4.03631753944,299,,Évergnicourt,Évergnicourt,2,Aisne,32,Hauts-de-France
2301,2320,49.5334418244,3.46663902605,301,,Faucoucourt,Faucoucourt,2,Aisne,32,Hauts-de-France
2302,2600,49.227064775,3.17814481548,302,,Faverolles,Faverolles,2,Aisne,32,Hauts-de-France
2303,2100,49.8710844824,3.25278845948,303,,Fayet,Fayet,2,Aisne,32,Hauts-de-France
2304,2800,49.6662828073,3.36938834693,304,La,Fère,La Fère,2,Aisne,32,Hauts-de-France
2305,2130,49.1875000917,3.51106425515,305,,Fère-en-Tardenois,Fère-en-Tardenois,2,Aisne,32,Hauts-de-France
2306,2270,49.7409973498,3.55129770695,306,La,Ferté-Chevresis,La Ferté-Chevresis,2,Aisne,32,Hauts-de-France
2307,2460,49.1759874423,3.14237641756,307,La,Ferté-Milon,La Ferté-Milon,2,Aisne,32,Hauts-de-France
2307,2460,49.1759874423,3.14237641756,307,La,Ferté-Milon,La Ferté-Milon,2,Aisne,32,Hauts-de-France
2308,2450,50.0482154856,3.69825469199,308,,Fesmy-le-Sart,Fesmy-le-Sart,2,Aisne,32,Hauts-de-France
2308,2450,50.0482154856,3.69825469199,308,,Fesmy-le-Sart,Fesmy-le-Sart,2,Aisne,32,Hauts-de-France
2309,2840,49.5252642949,3.76013631694,309,,Festieux,Festieux,2,Aisne,32,Hauts-de-France
2310,2110,49.9018502295,3.44594045878,310,,Fieulaine,Fieulaine,2,Aisne,32,Hauts-de-France
2311,2000,49.4528807514,3.5574063541,311,,Filain,Filain,2,Aisne,32,Hauts-de-France
2312,2260,50.0002036206,3.92466690244,312,La,Flamengrie,La Flamengrie,2,Aisne,32,Hauts-de-France
2313,2120,49.8865505663,3.67406409367,313,,Flavigny-le-Grand-et-Beaurain,Flavigny-le-Grand-et-Beaurain,2,Aisne,32,Hauts-de-France
2315,2520,49.7047240534,3.19451403575,315,,Flavy-le-Martel,Flavy-le-Martel,2,Aisne,32,Hauts-de-France
2316,2600,49.2652863131,3.15947064674,316,,Fleury,Fleury,2,Aisne,32,Hauts-de-France
2317,2590,49.800435087,3.15658582012,317,,Fluquières,Fluquières,2,Aisne,32,Hauts-de-France
2318,2670,49.5492820594,3.29319165625,318,,Folembray,Folembray,2,Aisne,32,Hauts-de-France
2319,2110,49.9012467271,3.39650664791,319,,Fonsomme,Fonsomme,2,Aisne,32,Hauts-de-France
2320,2680,49.8078439274,3.21253412905,320,,Fontaine-lès-Clercs,Fontaine-lès-Clercs,2,Aisne,32,Hauts-de-France
2321,2140,49.8537390603,3.90543025367,321,,Fontaine-lès-Vervins,Fontaine-lès-Vervins,2,Aisne,32,Hauts-de-France
2322,2110,49.8785724713,3.42380596752,322,,Fontaine-Notre-Dame,Fontaine-Notre-Dame,2,Aisne,32,Hauts-de-France
2323,2110,49.9252841672,3.36796234214,323,,Fontaine-Uterte,Fontaine-Uterte,2,Aisne,32,Hauts-de-France
2324,2170,50.0309452362,3.84625365761,324,,Fontenelle,Fontenelle,2,Aisne,32,Hauts-de-France
2326,2290,49.4099999437,3.19454758662,326,,Fontenoy,Fontenoy,2,Aisne,32,Hauts-de-France
2327,2590,49.8055794029,3.09615936707,327,,Foreste,Foreste,2,Aisne,32,Hauts-de-France
2328,2650,49.044990122,3.48523126715,328,,Fossoy,Fossoy,2,Aisne,32,Hauts-de-France
2329,2870,49.6194184451,3.46049121118,329,,Fourdrain,Fourdrain,2,Aisne,32,Hauts-de-France
2330,2760,49.8546596853,3.22822036861,330,,Francilly-Selency,Francilly-Selency,2,Aisne,32,Hauts-de-France
2331,2140,49.8164125588,3.79770261738,331,,Franqueville,Franqueville,2,Aisne,32,Hauts-de-France
2332,2130,49.1427948273,3.54893406985,332,,Fresnes-en-Tardenois,Fresnes-en-Tardenois,2,Aisne,32,Hauts-de-France
2333,2380,49.5548078585,3.37018022508,333,,Fresnes-sous-Coucy,Fresnes-sous-Coucy,2,Aisne,32,Hauts-de-France
2334,2230,49.9540724704,3.41858032499,334,,Fresnoy-le-Grand,Fresnoy-le-Grand,2,Aisne,32,Hauts-de-France
2335,2800,49.6284783975,3.42727910427,335,,Fressancourt,Fressancourt,2,Aisne,32,Hauts-de-France
2336,2700,49.6835552621,3.23680430341,336,,Frières-Faillouël,Frières-Faillouël,2,Aisne,32,Hauts-de-France
2337,2260,49.9427092508,3.91032175248,337,,Froidestrées,Froidestrées,2,Aisne,32,Hauts-de-France
2338,2270,49.6818768902,3.72070844849,338,,Froidmont-Cohartille,Froidmont-Cohartille,2,Aisne,32,Hauts-de-France
2339,2810,49.0832089104,3.18156231552,339,,Gandelu,Gandelu,2,Aisne,32,Hauts-de-France
2340,2430,49.8234688599,3.28649189661,340,,Gauchy,Gauchy,2,Aisne,32,Hauts-de-France
2341,2140,49.8158108138,3.87133277309,341,,Gercy,Gercy,2,Aisne,32,Hauts-de-France
2342,2260,49.9326319225,3.92972384714,342,,Gergny,Gergny,2,Aisne,32,Hauts-de-France
2343,2590,49.8124843843,3.11903042429,343,,Germaine,Germaine,2,Aisne,32,Hauts-de-France
2344,2160,49.3952382352,3.86382109909,344,,Gernicourt,Gernicourt,2,Aisne,32,Hauts-de-France
2345,2440,49.7393520234,3.28269647304,345,,Gibercourt,Gibercourt,2,Aisne,32,Hauts-de-France
2346,2350,49.6104960814,3.76786152197,346,,Gizy,Gizy,2,Aisne,32,Hauts-de-France
2347,2400,49.0579740538,3.45713931457,347,,Gland,Gland,2,Aisne,32,Hauts-de-France
2349,2820,49.4946764579,3.85858670968,349,,Goudelancourt-lès-Berrieux,Goudelancourt-lès-Berrieux,2,Aisne,32,Hauts-de-France
2350,2350,49.6783296824,3.85162740345,350,,Goudelancourt-lès-Pierrepont,Goudelancourt-lès-Pierrepont,2,Aisne,32,Hauts-de-France
2351,2130,49.1608459229,3.65658681802,351,,Goussancourt,Goussancourt,2,Aisne,32,Hauts-de-France
2352,2420,49.9987486908,3.26458305638,352,,Gouy,Gouy,2,Aisne,32,Hauts-de-France
2353,2350,49.6512687794,3.73646950468,353,,Grandlup-et-Fay,Grandlup-et-Fay,2,Aisne,32,Hauts-de-France
2354,2360,49.7291718471,4.1879249496,354,,Grandrieux,Grandrieux,2,Aisne,32,Hauts-de-France
2355,2100,49.8869947757,3.23960817466,355,,Gricourt,Gricourt,2,Aisne,32,Hauts-de-France
2356,2210,49.130183511,3.37217369933,356,,Grisolles,Grisolles,2,Aisne,32,Hauts-de-France
2357,2140,49.7963196915,3.88176918551,357,,Gronard,Gronard,2,Aisne,32,Hauts-de-France
2358,2110,49.9508110437,3.53098081744,358,,Grougis,Grougis,2,Aisne,32,Hauts-de-France
2359,2680,49.8100941328,3.2751623814,359,,Grugies,Grugies,2,Aisne,32,Hauts-de-France
2360,2190,49.4433017606,3.95534582458,360,,Guignicourt,Guignicourt,2,Aisne,32,Hauts-de-France
2361,2120,49.8960415076,3.62476062929,361,,Guise,Guise,2,Aisne,32,Hauts-de-France
2362,2300,49.651625761,3.12103476493,362,,Guivry,Guivry,2,Aisne,32,Hauts-de-France
2363,2300,49.5120153085,3.26082658052,363,,Guny,Guny,2,Aisne,32,Hauts-de-France
2364,2160,49.3573380108,3.84132930883,364,,Guyencourt,Guyencourt,2,Aisne,32,Hauts-de-France
2366,2510,49.9771158104,3.61442642232,366,,Hannapes,Hannapes,2,Aisne,32,Hauts-de-France
2367,2480,49.7825905619,3.1831286327,367,,Happencourt,Happencourt,2,Aisne,32,Hauts-de-France
2368,2600,49.2872759039,3.03148977109,368,,Haramont,Haramont,2,Aisne,32,Hauts-de-France
2369,2140,49.80256362,3.9828364762,369,,Harcigny,Harcigny,2,Aisne,32,Hauts-de-France
2370,2420,49.9664492878,3.19055510378,370,,Hargicourt,Hargicourt,2,Aisne,32,Hauts-de-France
2371,2100,49.8407051764,3.33484724239,371,,Harly,Harly,2,Aisne,32,Hauts-de-France
2372,2210,49.2789534457,3.35763287633,372,,Hartennes-et-Taux,Hartennes-et-Taux,2,Aisne,32,Hauts-de-France
2373,2140,49.797388651,3.91927403736,373,,Hary,Hary,2,Aisne,32,Hauts-de-France
2374,2420,49.911760676,3.27675235436,374,,Lehaucourt,Lehaucourt,2,Aisne,32,Hauts-de-France
2375,2810,49.1088469374,3.2356780284,375,,Hautevesnes,Hautevesnes,2,Aisne,32,Hauts-de-France
2376,2120,49.8884981223,3.52369340599,376,,Hauteville,Hauteville,2,Aisne,32,Hauts-de-France
2377,2140,49.8721128525,3.82719888249,377,,Haution,Haution,2,Aisne,32,Hauts-de-France
2378,2500,49.8838269882,4.04360657052,378,La,Hérie,La Hérie,2,Aisne,32,Hauts-de-France
2379,2120,49.8222697536,3.65376324724,379,Le,Hérie-la-Viéville,Le Hérie-la-Viéville,2,Aisne,32,Hauts-de-France
2380,2440,49.7459956466,3.29422566384,380,,Hinacourt,Hinacourt,2,Aisne,32,Hauts-de-France
2381,2500,49.9426458618,4.10483732841,381,,Hirson,Hirson,2,Aisne,32,Hauts-de-France
2382,2760,49.8612556888,3.20085325892,382,,Holnon,Holnon,2,Aisne,32,Hauts-de-France
2383,2720,49.8577543083,3.37495127984,383,,Homblières,Homblières,2,Aisne,32,Hauts-de-France
2384,2140,49.7861780633,3.84806416077,384,,Houry,Houry,2,Aisne,32,Hauts-de-France
2385,2250,49.7961649956,3.69539262425,385,,Housset,Housset,2,Aisne,32,Hauts-de-France
2386,2510,49.9504309458,3.6652978953,386,,Iron,Iron,2,Aisne,32,Hauts-de-France
2387,2240,49.803442885,3.34942752527,387,,Itancourt,Itancourt,2,Aisne,32,Hauts-de-France
2388,2360,49.7858863872,4.13552902559,388,,Iviers,Iviers,2,Aisne,32,Hauts-de-France
2389,2850,49.0895236955,3.53359601877,389,,Jaulgonne,Jaulgonne,2,Aisne,32,Hauts-de-France
2390,2490,49.9288562683,3.14778805313,390,,Jeancourt,Jeancourt,2,Aisne,32,Hauts-de-France
2391,2140,49.8127276252,4.06715502895,391,,Jeantes,Jeantes,2,Aisne,32,Hauts-de-France
2392,2420,49.9601487798,3.30407272701,392,,Joncourt,Joncourt,2,Aisne,32,Hauts-de-France
2393,2220,49.2928418789,3.52818628425,393,,Jouaignes,Jouaignes,2,Aisne,32,Hauts-de-France
2395,2380,49.5122950231,3.34939792383,395,,Jumencourt,Jumencourt,2,Aisne,32,Hauts-de-France
2396,2160,49.4083834603,3.72524669282,396,,Jumigny,Jumigny,2,Aisne,32,Hauts-de-France
2397,2480,49.7172050931,3.23611732777,397,,Jussy,Jussy,2,Aisne,32,Hauts-de-France
2398,2880,49.44857677,3.31533781107,398,,Juvigny,Juvigny,2,Aisne,32,Hauts-de-France
2399,2190,49.4468853425,3.89147198339,399,,Juvincourt-et-Damary,Juvincourt-et-Damary,2,Aisne,32,Hauts-de-France
2400,2880,49.4494770874,3.42995693216,400,,Laffaux,Laffaux,2,Aisne,32,Hauts-de-France
2401,2140,49.8631466398,3.86133626518,401,,Laigny,Laigny,2,Aisne,32,Hauts-de-France
2402,2590,49.8292105187,3.07415428089,402,,Lanchy,Lanchy,2,Aisne,32,Hauts-de-France
2403,2120,49.8255553996,3.60399989958,403,,Landifay-et-Bertaignemont,Landifay-et-Bertaignemont,2,Aisne,32,Hauts-de-France
2404,2140,49.8441415789,3.99358286375,404,,Landouzy-la-Cour,Landouzy-la-Cour,2,Aisne,32,Hauts-de-France
2405,2140,49.8562890185,4.05045506584,405,,Landouzy-la-Ville,Landouzy-la-Ville,2,Aisne,32,Hauts-de-France
2406,2380,49.505420346,3.36950507041,406,,Landricourt,Landricourt,2,Aisne,32,Hauts-de-France
2407,2000,49.5469118723,3.53406747358,407,,Laniscourt,Laniscourt,2,Aisne,32,Hauts-de-France
2408,2000,49.5679724897,3.62089561902,408,,Laon,Laon,2,Aisne,32,Hauts-de-France
2409,2150,49.5898015281,3.96457967258,409,,Lappion,Lappion,2,Aisne,32,Hauts-de-France
2410,2600,49.2610748419,3.05411123113,410,,Largny-sur-Automne,Largny-sur-Automne,2,Aisne,32,Hauts-de-France
2411,2210,49.1538863119,3.31218468893,411,,Latilly,Latilly,2,Aisne,32,Hauts-de-France
2412,2210,49.2629984132,3.4054374314,412,,Launoy,Launoy,2,Aisne,32,Hauts-de-France
2413,2860,49.5029905064,3.58758242212,413,,Laval-en-Laonnois,Laval-en-Laonnois,2,Aisne,32,Hauts-de-France
2414,2450,49.9465387553,3.7166420191,414,,Lavaqueresse,Lavaqueresse,2,Aisne,32,Hauts-de-France
2415,2600,49.3528718857,3.15459651522,415,,Laversine,Laversine,2,Aisne,32,Hauts-de-France
2416,2140,49.843926232,3.7576717994,416,,Lemé,Lemé,2,Aisne,32,Hauts-de-France
2417,2420,49.9953429453,3.17401503527,417,,Lempire,Lempire,2,Aisne,32,Hauts-de-France
2418,2260,49.9499258495,3.88135093149,418,,Lerzy,Lerzy,2,Aisne,32,Hauts-de-France
2419,2170,49.9605709227,3.77740709683,419,,Leschelle,Leschelle,2,Aisne,32,Hauts-de-France
2420,2100,49.9043632178,3.31462117869,420,,Lesdins,Lesdins,2,Aisne,32,Hauts-de-France
2421,2220,49.309828392,3.50034767893,421,,Lesges,Lesges,2,Aisne,32,Hauts-de-France
2422,2120,49.931687068,3.62808644318,422,,Lesquielles-Saint-Germain,Lesquielles-Saint-Germain,2,Aisne,32,Hauts-de-France
2423,2380,49.4734455044,3.35288205414,423,,Leuilly-sous-Coucy,Leuilly-sous-Coucy,2,Aisne,32,Hauts-de-France
2424,2880,49.4269529918,3.34130922178,424,,Leury,Leury,2,Aisne,32,Hauts-de-France
2425,2500,49.8578215993,4.16963845435,425,,Leuze,Leuze,2,Aisne,32,Hauts-de-France
2426,2420,49.9345380686,3.31185579217,426,,Levergies,Levergies,2,Aisne,32,Hauts-de-France
2427,2220,49.2728528048,3.54230635286,427,,Lhuys,Lhuys,2,Aisne,32,Hauts-de-France
2428,2810,49.102123319,3.26534900839,428,,Licy-Clignon,Licy-Clignon,2,Aisne,32,Hauts-de-France
2429,2860,49.4874867517,3.62227691789,429,,Lierval,Lierval,2,Aisne,32,Hauts-de-France
2430,2350,49.6108544067,3.81711786834,430,,Liesse-Notre-Dame,Liesse-Notre-Dame,2,Aisne,32,Hauts-de-France
2431,2700,49.6923509874,3.30017368966,431,,Liez,Liez,2,Aisne,32,Hauts-de-France
2432,2220,49.3234940469,3.55539520178,432,,Limé,Limé,2,Aisne,32,Hauts-de-France
2433,2340,49.6757265054,4.02084295692,433,,Lislet,Lislet,2,Aisne,32,Hauts-de-France
2434,2320,49.5119505422,3.47941613566,434,,Lizy,Lizy,2,Aisne,32,Hauts-de-France
2435,2500,49.8330144048,4.2201280927,435,,Logny-lès-Aubenton,Logny-lès-Aubenton,2,Aisne,32,Hauts-de-France
2438,2600,49.2843362442,3.22069360555,438,,Longpont,Longpont,2,Aisne,32,Hauts-de-France
2439,2160,49.3603355862,3.65567844397,439,Les,Septvallons,Les Septvallons,2,Aisne,32,Hauts-de-France
2439,2160,49.3603355862,3.65567844397,439,Les,Septvallons,Les Septvallons,2,Aisne,32,Hauts-de-France
2439,2160,49.3603355862,3.65567844397,439,Les,Septvallons,Les Septvallons,2,Aisne,32,Hauts-de-France
2439,2160,49.3603355862,3.65567844397,439,Les,Septvallons,Les Septvallons,2,Aisne,32,Hauts-de-France
2439,2160,49.3603355862,3.65567844397,439,Les,Septvallons,Les Septvallons,2,Aisne,32,Hauts-de-France
2439,2160,49.3603355862,3.65567844397,439,Les,Septvallons,Les Septvallons,2,Aisne,32,Hauts-de-France
2439,2160,49.3603355862,3.65567844397,439,Les,Septvallons,Les Septvallons,2,Aisne,32,Hauts-de-France
2439,2160,49.3603355862,3.65567844397,439,Les,Septvallons,Les Septvallons,2,Aisne,32,Hauts-de-France
2440,2190,49.5296668744,4.05453884406,440,,Lor,Lor,2,Aisne,32,Hauts-de-France
2441,2600,49.2527947078,3.24153629897,441,,Louâtre,Louâtre,2,Aisne,32,Hauts-de-France
2442,2130,49.2411071956,3.5251073823,442,,Loupeigne,Loupeigne,2,Aisne,32,Hauts-de-France
2443,2400,49.0549612755,3.27616704555,443,,Lucy-le-Bocage,Lucy-le-Bocage,2,Aisne,32,Hauts-de-France
2444,2140,49.782281297,3.8121953982,444,,Lugny,Lugny,2,Aisne,32,Hauts-de-France
2445,2500,49.9271348987,3.96025090337,445,,Luzoir,Luzoir,2,Aisne,32,Hauts-de-France
2446,2440,49.732033107,3.31099377857,446,,Ly-Fontaine,Ly-Fontaine,2,Aisne,32,Hauts-de-France
2447,2220,49.2931740531,3.45694908531,447,,Maast-et-Violaine,Maast-et-Violaine,2,Aisne,32,Hauts-de-France
2448,2350,49.6516966172,3.83765995783,448,,Mâchecourt,Mâchecourt,2,Aisne,32,Hauts-de-France
2449,2470,49.1590429097,3.21784708642,449,,Macogny,Macogny,2,Aisne,32,Hauts-de-France
2450,2120,49.8732387452,3.57070489565,450,,Macquigny,Macquigny,2,Aisne,32,Hauts-de-France
2451,2420,49.9371259007,3.27654031882,451,,Magny-la-Fosse,Magny-la-Fosse,2,Aisne,32,Hauts-de-France
2452,2490,49.8929443672,3.1890371838,452,,Maissemy,Maissemy,2,Aisne,32,Hauts-de-France
2453,2160,49.377259904,3.71616526094,453,,Maizy,Maizy,2,Aisne,32,Hauts-de-France
2454,2190,49.5165178767,4.00048717912,454,La,Malmaison,La Malmaison,2,Aisne,32,Hauts-de-France
2455,2120,49.921297034,3.73000059946,455,,Malzy,Malzy,2,Aisne,32,Hauts-de-France
2456,2300,49.5650654162,3.17962639988,456,,Manicamp,Manicamp,2,Aisne,32,Hauts-de-France
2457,2350,49.5850707567,3.82150148626,457,,Marchais,Marchais,2,Aisne,32,Hauts-de-France
2458,2330,48.8935786183,3.49268121283,458,,Dhuys et Morin-en-Brie,Dhuys et Morin-en-Brie,2,Aisne,32,Hauts-de-France
2458,2540,48.8935786183,3.49268121283,458,,Dhuys et Morin-en-Brie,Dhuys et Morin-en-Brie,2,Aisne,32,Hauts-de-France
2458,2540,48.8935786183,3.49268121283,458,,Dhuys et Morin-en-Brie,Dhuys et Morin-en-Brie,2,Aisne,32,Hauts-de-France
2458,2540,48.8935786183,3.49268121283,458,,Dhuys et Morin-en-Brie,Dhuys et Morin-en-Brie,2,Aisne,32,Hauts-de-France
2459,2720,49.8535898318,3.41135532201,459,,Marcy,Marcy,2,Aisne,32,Hauts-de-France
2460,2250,49.7457495163,3.73453881149,460,,Marcy-sous-Marle,Marcy-sous-Marle,2,Aisne,32,Hauts-de-France
2461,2300,49.59443854,3.14627124688,461,,Marest-Dampcourt,Marest-Dampcourt,2,Aisne,32,Hauts-de-France
2462,2130,49.2424552782,3.56114326739,462,,Mareuil-en-Dôle,Mareuil-en-Dôle,2,Aisne,32,Hauts-de-France
2463,2140,49.8080469097,3.7639268819,463,,Marfontaine,Marfontaine,2,Aisne,32,Hauts-de-France
2464,2880,49.432719029,3.40572977303,464,,Margival,Margival,2,Aisne,32,Hauts-de-France
2465,2810,49.0526386182,3.22281001734,465,,Marigny-en-Orxois,Marigny-en-Orxois,2,Aisne,32,Hauts-de-France
2466,2470,49.1825477943,3.19814247608,466,,Marizy-Sainte-Geneviève,Marizy-Sainte-Geneviève,2,Aisne,32,Hauts-de-France
2467,2470,49.1822693098,3.22799114728,467,,Marizy-Saint-Mard,Marizy-Saint-Mard,2,Aisne,32,Hauts-de-France
2468,2250,49.7451393478,3.7652054501,468,,Marle,Marle,2,Aisne,32,Hauts-de-France
2469,2120,49.8913737841,3.7849871912,469,,Marly-Gomont,Marly-Gomont,2,Aisne,32,Hauts-de-France
2470,2500,49.866582249,4.13443052228,470,,Martigny,Martigny,2,Aisne,32,Hauts-de-France
2471,2860,49.4900405005,3.6867077549,471,,Martigny-Courpierre,Martigny-Courpierre,2,Aisne,32,Hauts-de-France
2472,2820,49.5406230877,3.79762834314,472,,Mauregny-en-Haye,Mauregny-en-Haye,2,Aisne,32,Hauts-de-France
2473,2800,49.7090117255,3.39804766077,473,,Mayot,Mayot,2,Aisne,32,Hauts-de-France
2474,2700,49.6918385873,3.27543313236,474,,Mennessis,Mennessis,2,Aisne,32,Hauts-de-France
2475,2190,49.4303233528,4.00555747176,475,,Menneville,Menneville,2,Aisne,32,Hauts-de-France
2476,2630,49.9919704555,3.55884133428,476,,Mennevret,Mennevret,2,Aisne,32,Hauts-de-France
2477,2200,49.3705627456,3.27070140635,477,,Mercin-et-Vaux,Mercin-et-Vaux,2,Aisne,32,Hauts-de-France
2478,2000,49.5137172169,3.49932983224,478,,Merlieux-et-Fouquerolles,Merlieux-et-Fouquerolles,2,Aisne,32,Hauts-de-France
2480,2270,49.710385665,3.53739733076,480,,Mesbrecourt-Richecourt,Mesbrecourt-Richecourt,2,Aisne,32,Hauts-de-France
2481,2720,49.8290188644,3.36454012617,481,,Mesnil-Saint-Laurent,Mesnil-Saint-Laurent,2,Aisne,32,Hauts-de-France
2482,2160,49.3567698663,3.7590616765,482,,Meurival,Meurival,2,Aisne,32,Hauts-de-France
2483,2240,49.7918999939,3.38740833653,483,,Mézières-sur-Oise,Mézières-sur-Oise,2,Aisne,32,Hauts-de-France
2484,2650,49.0630074888,3.5122782761,484,,Mézy-Moulins,Mézy-Moulins,2,Aisne,32,Hauts-de-France
2485,2200,49.3349407256,3.24662970633,485,,Missy-aux-Bois,Missy-aux-Bois,2,Aisne,32,Hauts-de-France
2486,2350,49.6279354887,3.7841954065,486,,Missy-lès-Pierrepont,Missy-lès-Pierrepont,2,Aisne,32,Hauts-de-France
2487,2880,49.3855898418,3.43829672684,487,,Missy-sur-Aisne,Missy-sur-Aisne,2,Aisne,32,Hauts-de-France
2488,2110,50.03359227,3.52985658168,488,,Molain,Molain,2,Aisne,32,Hauts-de-France
2489,2000,49.5624802928,3.53979641476,489,,Molinchart,Molinchart,2,Aisne,32,Hauts-de-France
2490,2000,49.4760084468,3.57360176783,490,,Monampteuil,Monampteuil,2,Aisne,32,Hauts-de-France
2491,2270,49.7845792788,3.63110860935,491,,Monceau-le-Neuf-et-Faucouzy,Monceau-le-Neuf-et-Faucouzy,2,Aisne,32,Hauts-de-France
2492,2270,49.6617789272,3.48549133203,492,,Monceau-lès-Leups,Monceau-lès-Leups,2,Aisne,32,Hauts-de-France
2493,2840,49.6217435488,3.71656668597,493,,Monceau-le-Waast,Monceau-le-Waast,2,Aisne,32,Hauts-de-France
2494,2120,49.9097732744,3.69947432588,494,,Monceau-sur-Oise,Monceau-sur-Oise,2,Aisne,32,Hauts-de-France
2495,2500,49.9637441269,4.05128113518,495,,Mondrepuis,Mondrepuis,2,Aisne,32,Hauts-de-France
2496,2470,49.1458358775,3.22861820737,496,,Monnes,Monnes,2,Aisne,32,Hauts-de-France
2497,2000,49.5379451828,3.55478457954,497,,Mons-en-Laonnois,Mons-en-Laonnois,2,Aisne,32,Hauts-de-France
2498,2820,49.5531328831,3.84439779259,498,,Montaigu,Montaigu,2,Aisne,32,Hauts-de-France
2499,2000,49.5295376592,3.51319789821,499,,Montbavin,Montbavin,2,Aisne,32,Hauts-de-France
2500,2110,49.9642449609,3.35609147368,500,,Montbrehain,Montbrehain,2,Aisne,32,Hauts-de-France
2501,2860,49.5131917425,3.72718965805,501,,Montchâlons,Montchâlons,2,Aisne,32,Hauts-de-France
2502,2340,49.6890129328,4.02915061151,502,,Montcornet,Montcornet,2,Aisne,32,Hauts-de-France
2503,2390,49.8514997521,3.52673568406,503,,Mont-d'Origny,Mont-d'Origny,2,Aisne,32,Hauts-de-France
2504,2440,49.7360396205,3.26188923395,504,,Montescourt-Lizerolles,Montescourt-Lizerolles,2,Aisne,32,Hauts-de-France
2505,2540,48.9466694844,3.43192398845,505,,Montfaucon,Montfaucon,2,Aisne,32,Hauts-de-France
2506,2600,49.289626635,3.17404129063,506,,Montgobert,Montgobert,2,Aisne,32,Hauts-de-France
2507,2210,49.1768851038,3.32722209943,507,,Montgru-Saint-Hilaire,Montgru-Saint-Hilaire,2,Aisne,32,Hauts-de-France
2508,2860,49.4892743465,3.65592404446,508,,Monthenault,Monthenault,2,Aisne,32,Hauts-de-France
2509,2400,49.1085987235,3.29437776654,509,,Monthiers,Monthiers,2,Aisne,32,Hauts-de-France
2510,2330,49.0275310805,3.55187396803,510,,Monthurel,Monthurel,2,Aisne,32,Hauts-de-France
2511,2110,49.9120067618,3.48306674241,511,,Montigny-en-Arrouaise,Montigny-en-Arrouaise,2,Aisne,32,Hauts-de-France
2512,2810,49.1221418457,3.10744372815,512,,Montigny-l'Allier,Montigny-l'Allier,2,Aisne,32,Hauts-de-France
2513,2250,49.6874788196,3.9183982393,513,,Montigny-le-Franc,Montigny-le-Franc,2,Aisne,32,Hauts-de-France
2514,2290,49.3726900463,3.09924630011,514,,Montigny-Lengrain,Montigny-Lengrain,2,Aisne,32,Hauts-de-France
2515,2330,48.9830055534,3.56635546224,515,,Montigny-lès-Condé,Montigny-lès-Condé,2,Aisne,32,Hauts-de-France
2516,2250,49.7411090858,3.80397947574,516,,Montigny-sous-Marle,Montigny-sous-Marle,2,Aisne,32,Hauts-de-France
2517,2270,49.7149248587,3.58368023998,517,,Montigny-sur-Crécy,Montigny-sur-Crécy,2,Aisne,32,Hauts-de-France
2518,2330,48.9627005485,3.51543798042,518,,Montlevon,Montlevon,2,Aisne,32,Hauts-de-France
2519,2340,49.6682396007,4.06275825607,519,,Montloué,Montloué,2,Aisne,32,Hauts-de-France
2520,2220,49.2921467742,3.5821661713,520,,Mont-Notre-Dame,Mont-Notre-Dame,2,Aisne,32,Hauts-de-France
2521,2310,49.0264607134,3.19454438663,521,,Montreuil-aux-Lions,Montreuil-aux-Lions,2,Aisne,32,Hauts-de-France
2522,2360,49.7932196838,4.21125667983,522,,Mont-Saint-Jean,Mont-Saint-Jean,2,Aisne,32,Hauts-de-France
2523,2220,49.2747967442,3.64275042996,523,,Mont-Saint-Martin,Mont-Saint-Martin,2,Aisne,32,Hauts-de-France
2524,2400,49.0816980947,3.47715449247,524,,Mont-Saint-Père,Mont-Saint-Père,2,Aisne,32,Hauts-de-France
2525,2100,49.8759595448,3.33400206098,525,,Morcourt,Morcourt,2,Aisne,32,Hauts-de-France
2526,2360,49.7544947391,4.07631392389,526,,Morgny-en-Thiérache,Morgny-en-Thiérache,2,Aisne,32,Hauts-de-France
2527,2290,49.4616807631,3.19122405616,527,,Morsain,Morsain,2,Aisne,32,Hauts-de-France
2528,2600,49.3362768244,3.08053479514,528,,Mortefontaine,Mortefontaine,2,Aisne,32,Hauts-de-France
2529,2270,49.6934508264,3.66411841593,529,,Mortiers,Mortiers,2,Aisne,32,Hauts-de-France
2530,2160,49.4198471298,3.67884923026,530,,Moulins,Moulins,2,Aisne,32,Hauts-de-France
2531,2160,49.4126815323,3.63718132987,531,,Moussy-Verneuil,Moussy-Verneuil,2,Aisne,32,Hauts-de-France
2532,2610,49.750274961,3.35100553228,532,,Moÿ-de-l'Aisne,Moÿ-de-l'Aisne,2,Aisne,32,Hauts-de-France
2533,2210,49.2781417953,3.43464742094,533,,Muret-et-Crouttes,Muret-et-Crouttes,2,Aisne,32,Hauts-de-France
2534,2160,49.3595795698,3.74350239233,534,,Muscourt,Muscourt,2,Aisne,32,Hauts-de-France
2535,2140,49.7765756098,4.00209910519,535,,Nampcelles-la-Cour,Nampcelles-la-Cour,2,Aisne,32,Hauts-de-France
2536,2200,49.3051403969,3.43398003516,536,,Nampteuil-sous-Muret,Nampteuil-sous-Muret,2,Aisne,32,Hauts-de-France
2537,2880,49.4338010814,3.44800041437,537,,Nanteuil-la-Fosse,Nanteuil-la-Fosse,2,Aisne,32,Hauts-de-France
2538,2210,49.1907421685,3.41207163018,538,,Nanteuil-Notre-Dame,Nanteuil-Notre-Dame,2,Aisne,32,Hauts-de-France
2539,2420,49.9508154668,3.25861980976,539,,Nauroy,Nauroy,2,Aisne,32,Hauts-de-France
2540,2400,48.9997837313,3.44587892818,540,,Nesles-la-Montagne,Nesles-la-Montagne,2,Aisne,32,Hauts-de-France
2541,2190,49.4367296826,4.0236471269,541,,Neufchâtel-sur-Aisne,Neufchâtel-sur-Aisne,2,Aisne,32,Hauts-de-France
2542,2300,49.6163788231,3.15996849471,542,,Neuflieux,Neuflieux,2,Aisne,32,Hauts-de-France
2543,2470,49.1626366671,3.26436269893,543,,Neuilly-Saint-Front,Neuilly-Saint-Front,2,Aisne,32,Hauts-de-France
2544,2500,49.9286429779,4.04086730255,544,,Neuve-Maison,Neuve-Maison,2,Aisne,32,Hauts-de-France
2545,2250,49.7145039747,3.83367274994,545,La,Neuville-Bosmont,La Neuville-Bosmont,2,Aisne,32,Hauts-de-France
2546,2300,49.6762298475,3.15600362361,546,La,Neuville-en-Beine,La Neuville-en-Beine,2,Aisne,32,Hauts-de-France
2547,2250,49.7881379377,3.73171627307,547,La,Neuville-Housset,La Neuville-Housset,2,Aisne,32,Hauts-de-France
2548,2450,49.983064353,3.68565926181,548,La,Neuville-lès-Dorengt,La Neuville-lès-Dorengt,2,Aisne,32,Hauts-de-France
2549,2100,49.8206477091,3.33360991741,549,,Neuville-Saint-Amand,Neuville-Saint-Amand,2,Aisne,32,Hauts-de-France
2550,2860,49.4695141414,3.69819946444,550,,Neuville-sur-Ailette,Neuville-sur-Ailette,2,Aisne,32,Hauts-de-France
2551,2880,49.4548729773,3.3986658815,551,,Neuville-sur-Margival,Neuville-sur-Margival,2,Aisne,32,Hauts-de-France
2552,2390,49.8554002239,3.46831298648,552,,Neuvillette,Neuvillette,2,Aisne,32,Hauts-de-France
2553,2150,49.574361853,4.03064818206,553,,Nizy-le-Comte,Nizy-le-Comte,2,Aisne,32,Hauts-de-France
2554,2400,49.0140758623,3.40340404208,554,,Nogentel,Nogentel,2,Aisne,32,Hauts-de-France
2555,2310,48.9426222247,3.332802902,555,,Nogent-l'Artaud,Nogent-l'Artaud,2,Aisne,32,Hauts-de-France
2556,2340,49.6691648747,4.09433809595,556,,Noircourt,Noircourt,2,Aisne,32,Hauts-de-France
2557,2600,49.2041824443,3.20698565652,557,,Noroy-sur-Ourcq,Noroy-sur-Ourcq,2,Aisne,32,Hauts-de-France
2558,2170,50.0086867152,3.80929288198,558,Le,Nouvion-en-Thiérache,Le Nouvion-en-Thiérache,2,Aisne,32,Hauts-de-France
2559,2270,49.7075667391,3.49359729343,559,,Nouvion-et-Catillon,Nouvion-et-Catillon,2,Aisne,32,Hauts-de-France
2559,2270,49.7075667391,3.49359729343,559,,Nouvion-et-Catillon,Nouvion-et-Catillon,2,Aisne,32,Hauts-de-France
2560,2800,49.7079830783,3.46084868911,560,,Nouvion-le-Comte,Nouvion-le-Comte,2,Aisne,32,Hauts-de-France
2561,2860,49.5092763308,3.605351266,561,,Nouvion-le-Vineux,Nouvion-le-Vineux,2,Aisne,32,Hauts-de-France
2562,2290,49.4333492,3.18803179842,562,,Nouvron-Vingré,Nouvron-Vingré,2,Aisne,32,Hauts-de-France
2563,2120,49.9082559491,3.53848565514,563,,Noyales,Noyales,2,Aisne,32,Hauts-de-France
2564,2200,49.3319620657,3.33416303776,564,,Noyant-et-Aconin,Noyant-et-Aconin,2,Aisne,32,Hauts-de-France
2565,2160,49.3928856944,3.68222741301,565,,Œuilly,Œuilly,2,Aisne,32,Hauts-de-France
2566,2300,49.6136864694,3.19142372904,566,,Ognes,Ognes,2,Aisne,32,Hauts-de-France
2567,2500,49.9184307239,4.01170912127,567,,Ohis,Ohis,2,Aisne,32,Hauts-de-France
2568,2600,49.2137237953,3.1302728623,568,,Oigny-en-Valois,Oigny-en-Valois,2,Aisne,32,Hauts-de-France
2569,2450,50.0229089259,3.65273893683,569,,Oisy,Oisy,2,Aisne,32,Hauts-de-France
2570,2480,49.729996536,3.14607261695,570,,Ollezy,Ollezy,2,Aisne,32,Hauts-de-France
2571,2100,49.8804267246,3.29788036707,571,,Omissy,Omissy,2,Aisne,32,Hauts-de-France
2572,2190,49.3759679828,4.01565856496,572,,Orainville,Orainville,2,Aisne,32,Hauts-de-France
2573,2860,49.5041140764,3.70337016497,573,,Orgeval,Orgeval,2,Aisne,32,Hauts-de-France
2574,2550,49.8861904623,4.01101149757,574,,Origny-en-Thiérache,Origny-en-Thiérache,2,Aisne,32,Hauts-de-France
2575,2390,49.8268502674,3.52909324665,575,,Origny-Sainte-Benoite,Origny-Sainte-Benoite,2,Aisne,32,Hauts-de-France
2576,2290,49.3995301311,3.23736511582,576,,Osly-Courtil,Osly-Courtil,2,Aisne,32,Hauts-de-France
2577,2370,49.4299692983,3.56538871192,577,,Ostel,Ostel,2,Aisne,32,Hauts-de-France
2578,2160,49.4311311984,3.73966290896,578,,Oulches-la-Vallée-Foulon,Oulches-la-Vallée-Foulon,2,Aisne,32,Hauts-de-France
2579,2210,49.2098503819,3.34062520679,579,,Oulchy-la-Ville,Oulchy-la-Ville,2,Aisne,32,Hauts-de-France
2580,2210,49.2070701806,3.38202413773,580,,Oulchy-le-Château,Oulchy-le-Château,2,Aisne,32,Hauts-de-France
2580,2210,49.2070701806,3.38202413773,580,,Oulchy-le-Château,Oulchy-le-Château,2,Aisne,32,Hauts-de-France
